name,formatted_address,geometry,permanently_closed,lat,lng
Schmidt & Associates Development Planning Ltd.,"1166 Alberni St #1440, Vancouver, BC V6E 3Z3, Canada","{'location': {'lat': 49.28889299999999, 'lng': -123.1297295}, 'viewport': {'northeast': {'lat': 49.29031577989272, 'lng': -123.1282684201072}, 'southwest': {'lat': 49.28761612010727, 'lng': -123.1309680798927}}}",,49.28889299999999,-123.1297295
Concord Pacific Developments Inc. (Head Office),"1095 W Pender St 9th Floor, Vancouver, BC V6E 2M6, Canada","{'location': {'lat': 49.2875787, 'lng': -123.119728}, 'viewport': {'northeast': {'lat': 49.28886482989272, 'lng': -123.1185919201072}, 'southwest': {'lat': 49.28616517010728, 'lng': -123.1212915798927}}}",,49.2875787,-123.119728
"Burke, Dos Remedios Law Corporation","1103-750 W Pender St, Vancouver, BC V6C 1G8, Canada","{'location': {'lat': 49.2847818, 'lng': -123.1157242}, 'viewport': {'northeast': {'lat': 49.28622287989273, 'lng': -123.1141730201072}, 'southwest': {'lat': 49.28352322010728, 'lng': -123.1168726798927}}}",,49.2847818,-123.1157242
Imperial Parking Canada Corporation,"601 W Cordova St S #300, Vancouver, BC V6B 1G1, Canada","{'location': {'lat': 49.2855813, 'lng': -123.1118702}, 'viewport': {'northeast': {'lat': 49.28718307989272, 'lng': -123.1109301201073}, 'southwest': {'lat': 49.28448342010728, 'lng': -123.1136297798927}}}",,49.2855813,-123.1118702
VIA Rail Canada Inc.,"1150 Station St, Vancouver, BC V6A 2X7, Canada","{'location': {'lat': 49.2740915, 'lng': -123.0970939}, 'viewport': {'northeast': {'lat': 49.27548867989272, 'lng': -123.0957253201073}, 'southwest': {'lat': 49.27278902010728, 'lng': -123.0984249798927}}}",,49.2740915,-123.0970939
Alice Home Facilitators,"610 Granville St, Vancouver, BC V6C 3T3, Canada","{'location': {'lat': 49.28325659999999, 'lng': -123.116458}, 'viewport': {'northeast': {'lat': 49.28469547989273, 'lng': -123.1152504701073}, 'southwest': {'lat': 49.28199582010728, 'lng': -123.1179501298927}}}",,49.28325659999999,-123.116458
Prime Interiors Inc,"610 Granville St Suite 603, Vancouver, BC V6C 3T3, Canada","{'location': {'lat': 49.283257, 'lng': -123.116458}, 'viewport': {'northeast': {'lat': 49.28469577989271, 'lng': -123.1152503201073}, 'southwest': {'lat': 49.28199612010727, 'lng': -123.1179499798927}}}",,49.283257,-123.116458
S&S Insurance Services ICBC Autoplan,"6607 Main St, Vancouver, BC V5X 3H3, Canada","{'location': {'lat': 49.2245934, 'lng': -123.1018972}, 'viewport': {'northeast': {'lat': 49.22600367989272, 'lng': -123.1005386201073}, 'southwest': {'lat': 49.22330402010728, 'lng': -123.1032382798927}}}",,49.2245934,-123.1018972
A & S Insurance Services Ltd,"8294 120 St, Surrey, BC V3W 3N4, Canada","{'location': {'lat': 49.1539428, 'lng': -122.8900087}, 'viewport': {'northeast': {'lat': 49.15529672989273, 'lng': -122.8888371201073}, 'southwest': {'lat': 49.15259707010728, 'lng': -122.8915367798927}}}",,49.1539428,-122.8900087
T A Management Ltd,"1111 W Georgia St #308, Vancouver, BC V6E 4M3, Canada","{'location': {'lat': 49.2861821, 'lng': -123.1233108}, 'viewport': {'northeast': {'lat': 49.28748742989272, 'lng': -123.1221566701073}, 'southwest': {'lat': 49.28478777010728, 'lng': -123.1248563298928}}}",,49.2861821,-123.1233108
The Cadillac Fairview Corporation Limited,"Pacific Centre, 609 Granville St #910, Vancouver, BC V7Y 1G5, Canada","{'location': {'lat': 49.2827242, 'lng': -123.1181481}, 'viewport': {'northeast': {'lat': 49.28418212989273, 'lng': -123.1165120701073}, 'southwest': {'lat': 49.28148247010728, 'lng': -123.1192117298927}}}",,49.2827242,-123.1181481
Charest Reporting Inc,"885 W Georgia St 4th floor, Vancouver, BC V6C 0B5, Canada","{'location': {'lat': 49.2838044, 'lng': -123.1195512}, 'viewport': {'northeast': {'lat': 49.28519147989272, 'lng': -123.1183931701073}, 'southwest': {'lat': 49.28249182010728, 'lng': -123.1210928298927}}}",,49.2838044,-123.1195512
Bentall Corporation,"1055 Dunsmuir St Suite 1800, Vancouver, BC V7X 1B1, Canada","{'location': {'lat': 49.2864912, 'lng': -123.1213098}, 'viewport': {'northeast': {'lat': 49.28767692989272, 'lng': -123.1200497201073}, 'southwest': {'lat': 49.28497727010728, 'lng': -123.1227493798927}}}",,49.2864912,-123.1213098
Mecca Estacio of Sun Life Financial,"150 E 55th Ave, Vancouver, BC V5X 1M8, Canada","{'location': {'lat': 49.2200224, 'lng': -123.1030374}, 'viewport': {'northeast': {'lat': 49.22144812989272, 'lng': -123.1016835701073}, 'southwest': {'lat': 49.21874847010728, 'lng': -123.1043832298927}}}",,49.2200224,-123.1030374
Hossack Newby Graham & Smith,"1755 W Broadway, Vancouver, BC V6J 4S5, Canada","{'location': {'lat': 49.2638642, 'lng': -123.1446583}, 'viewport': {'northeast': {'lat': 49.26513132989272, 'lng': -123.1432652201073}, 'southwest': {'lat': 49.26243167010728, 'lng': -123.1459648798927}}}",,49.2638642,-123.1446583
Westport,"1691 W 75th Ave, Vancouver, BC V6P 6P2, Canada","{'location': {'lat': 49.2064635, 'lng': -123.1462769}, 'viewport': {'northeast': {'lat': 49.20773622989272, 'lng': -123.1450136701072}, 'southwest': {'lat': 49.20503657010727, 'lng': -123.1477133298927}}}",,49.2064635,-123.1462769
RBC Dominion Securities,"745 Thurlow St 20th Floor, Vancouver, BC V6E 1V8, Canada","{'location': {'lat': 49.2854259, 'lng': -123.1245203}, 'viewport': {'northeast': {'lat': 49.28665942989272, 'lng': -123.1229002201073}, 'southwest': {'lat': 49.28395977010727, 'lng': -123.1255998798927}}}",,49.2854259,-123.1245203
Lulu Island Winery,"16880 Westminster Hwy, Richmond, BC V6V 1A8, Canada","{'location': {'lat': 49.1692385, 'lng': -123.0365032}, 'viewport': {'northeast': {'lat': 49.17091177989272, 'lng': -123.0351515701072}, 'southwest': {'lat': 49.16821212010728, 'lng': -123.0378512298927}}}",,49.1692385,-123.0365032
City Side Winery,"328 W 2nd Ave, Vancouver, BC V5Y 1C8, Canada","{'location': {'lat': 49.268105, 'lng': -123.1111301}, 'viewport': {'northeast': {'lat': 49.26952472989272, 'lng': -123.1099672701073}, 'southwest': {'lat': 49.26682507010727, 'lng': -123.1126669298927}}}",True,49.268105,-123.1111301
Vancouver City Savings Credit Union,"5594 Cambie St, Vancouver, BC V5Z 3A2, Canada","{'location': {'lat': 49.23465849999999, 'lng': -123.1157617}, 'viewport': {'northeast': {'lat': 49.23601117989272, 'lng': -123.1145362201073}, 'southwest': {'lat': 49.23331152010728, 'lng': -123.1172358798927}}}",,49.23465849999999,-123.1157617
Upg Property Group Inc,"900 W Hastings St, Vancouver, BC V6C 1E5, Canada","{'location': {'lat': 49.2865591, 'lng': -123.1164144}, 'viewport': {'northeast': {'lat': 49.28782737989272, 'lng': -123.1149172201073}, 'southwest': {'lat': 49.28512772010728, 'lng': -123.1176168798928}}}",,49.2865591,-123.1164144
NEW Asia Capital Consultants,"1055 Dunsmuir St, Vancouver, BC V7X 1L3, Canada","{'location': {'lat': 49.2864912, 'lng': -123.1213098}, 'viewport': {'northeast': {'lat': 49.28767692989272, 'lng': -123.1200497201073}, 'southwest': {'lat': 49.28497727010728, 'lng': -123.1227493798927}}}",,49.2864912,-123.1213098
Vietnam Canada Education & Employment Agency,"6460 Fraser St, Vancouver, BC V5W 3A6, Canada","{'location': {'lat': 49.2260413, 'lng': -123.0905341}, 'viewport': {'northeast': {'lat': 49.22744707989273, 'lng': -123.0892891201073}, 'southwest': {'lat': 49.22474742010728, 'lng': -123.0919887798927}}}",,49.2260413,-123.0905341
Park Georgia Insurance Agencies Ltd,"5701 Granville St #201, Vancouver, BC V6M 4J7, Canada","{'location': {'lat': 49.2341824, 'lng': -123.1400908}, 'viewport': {'northeast': {'lat': 49.23561197989272, 'lng': -123.1387574201073}, 'southwest': {'lat': 49.23291232010728, 'lng': -123.1414570798927}}}",,49.2341824,-123.1400908
Wall Financial Corporation,"1088 Burrard St, Vancouver, BC V6Z 2R9, Canada","{'location': {'lat': 49.2803029, 'lng': -123.1270378}, 'viewport': {'northeast': {'lat': 49.28170822989272, 'lng': -123.1257782201073}, 'southwest': {'lat': 49.27900857010728, 'lng': -123.1284778798927}}}",,49.2803029,-123.1270378
New World Insurance Services,"8168 Granville St, Vancouver, BC V6P 4Z4, Canada","{'location': {'lat': 49.2112239, 'lng': -123.1408732}, 'viewport': {'northeast': {'lat': 49.21251627989272, 'lng': -123.1393064201073}, 'southwest': {'lat': 49.20981662010728, 'lng': -123.1420060798927}}}",,49.2112239,-123.1408732
Metropolitan Insurance Services,"1629 Commercial Dr, Vancouver, BC V5L 3Y4, Canada","{'location': {'lat': 49.2701297, 'lng': -123.0698297}, 'viewport': {'northeast': {'lat': 49.27124437989272, 'lng': -123.0687566201073}, 'southwest': {'lat': 49.26854472010727, 'lng': -123.0714562798927}}}",,49.2701297,-123.0698297
Drawing Room Graphic Services Ltd The,"1037 W Broadway, Vancouver, BC V6H 1E3, Canada","{'location': {'lat': 49.2635934, 'lng': -123.1275398}, 'viewport': {'northeast': {'lat': 49.26488927989271, 'lng': -123.1261923701073}, 'southwest': {'lat': 49.26218962010727, 'lng': -123.1288920298927}}}",,49.2635934,-123.1275398
Hatch Ltd.,"1066 W Hastings St #400, Vancouver, BC V6E 3X2, Canada","{'location': {'lat': 49.2875569, 'lng': -123.1189456}, 'viewport': {'northeast': {'lat': 49.28895682989272, 'lng': -123.1175426201073}, 'southwest': {'lat': 49.28625717010728, 'lng': -123.1202422798927}}}",,49.2875569,-123.1189456
Sand Story Psychology Services,"2902 W Broadway #212, Vancouver, BC V6K 2G8, Canada","{'location': {'lat': 49.2638835, 'lng': -123.1703179}, 'viewport': {'northeast': {'lat': 49.26535502989272, 'lng': -123.1689635201073}, 'southwest': {'lat': 49.26265537010728, 'lng': -123.1716631798927}}}",,49.2638835,-123.1703179
Derek Mah Law,"650 W Georgia St, Vancouver, BC V6B 4N7, Canada","{'location': {'lat': 49.28190069999999, 'lng': -123.1180043}, 'viewport': {'northeast': {'lat': 49.28306077989271, 'lng': -123.1165408201073}, 'southwest': {'lat': 49.28036112010727, 'lng': -123.1192404798927}}}",,49.28190069999999,-123.1180043
Raymond James Ltd,"925 W Georgia St #2100, Vancouver, BC V6C 3L2, Canada","{'location': {'lat': 49.2841444, 'lng': -123.1199049}, 'viewport': {'northeast': {'lat': 49.28537122989272, 'lng': -123.1185881701073}, 'southwest': {'lat': 49.28267157010728, 'lng': -123.1212878298928}}}",,49.2841444,-123.1199049
Zurich Canada,"888 Dunsmuir St, Vancouver, BC V6C 3K4, Canada","{'location': {'lat': 49.284676, 'lng': -123.1182269}, 'viewport': {'northeast': {'lat': 49.28605677989272, 'lng': -123.1168305201073}, 'southwest': {'lat': 49.28335712010728, 'lng': -123.1195301798927}}}",,49.284676,-123.1182269
Ameresco Canada,"2608 Granville St, Vancouver, BC V6H 3V3, Canada","{'location': {'lat': 49.2623439, 'lng': -123.1383906}, 'viewport': {'northeast': {'lat': 49.26383562989272, 'lng': -123.1370583701073}, 'southwest': {'lat': 49.26113597010728, 'lng': -123.1397580298927}}}",,49.2623439,-123.1383906
The University of British Columbia,"Vancouver, BC V6T 1Z4, Canada","{'location': {'lat': 49.26060520000001, 'lng': -123.2459938}, 'viewport': {'northeast': {'lat': 49.28261634999999, 'lng': -123.21947235}, 'southwest': {'lat': 49.23265135, 'lng': -123.26827175}}}",,49.26060520000001,-123.2459938
Vancouver School of Economics,"6000 Iona Dr, Vancouver, BC V6T 1L4, Canada","{'location': {'lat': 49.271064, 'lng': -123.250418}, 'viewport': {'northeast': {'lat': 49.27247102989272, 'lng': -123.2491149201072}, 'southwest': {'lat': 49.26977137010727, 'lng': -123.2518145798927}}}",,49.271064,-123.250418
Delta Land Development Ltd,"669 Howe St Suite 560, Vancouver, BC V6C 0B4, Canada","{'location': {'lat': 49.2837166, 'lng': -123.1186639}, 'viewport': {'northeast': {'lat': 49.28500517989272, 'lng': -123.1172112201073}, 'southwest': {'lat': 49.28230552010728, 'lng': -123.1199108798927}}}",,49.2837166,-123.1186639
Robert Fleming Lawyers,"925 W Georgia St #810, Vancouver, BC V6C 3L2, Canada","{'location': {'lat': 49.2841444, 'lng': -123.1199049}, 'viewport': {'northeast': {'lat': 49.28537122989272, 'lng': -123.1185881701073}, 'southwest': {'lat': 49.28267157010728, 'lng': -123.1212878298928}}}",,49.2841444,-123.1199049
Concert Properties Ltd.,"1190 Hornby St, Vancouver, BC V6Z 2K5, Canada","{'location': {'lat': 49.2787033, 'lng': -123.1273659}, 'viewport': {'northeast': {'lat': 49.28012662989272, 'lng': -123.1261298701073}, 'southwest': {'lat': 49.27742697010728, 'lng': -123.1288295298927}}}",,49.2787033,-123.1273659
Vision Wealth Management Ltd.,"610 Granville St #405, Vancouver, BC V6C 3T3, Canada","{'location': {'lat': 49.283148, 'lng': -123.1165454}, 'viewport': {'northeast': {'lat': 49.28459867989272, 'lng': -123.1153567201073}, 'southwest': {'lat': 49.28189902010728, 'lng': -123.1180563798927}}}",,49.283148,-123.1165454
Teck Resources Limited,"Bentall 5, 550 Burrard St #3300, Vancouver, BC V6C 0B3, Canada","{'location': {'lat': 49.2858307, 'lng': -123.1185085}, 'viewport': {'northeast': {'lat': 49.28724677989271, 'lng': -123.1172830701073}, 'southwest': {'lat': 49.28454712010727, 'lng': -123.1199827298927}}}",,49.2858307,-123.1185085
Vovios Networks Inc.,"1525 Robson St, Vancouver, BC V6G 1C3, Canada","{'location': {'lat': 49.2891489, 'lng': -123.1314036}, 'viewport': {'northeast': {'lat': 49.29043377989272, 'lng': -123.1301626201073}, 'southwest': {'lat': 49.28773412010727, 'lng': -123.1328622798927}}}",,49.2891489,-123.1314036
Bloomberg Business News,"666 Burrard St #3400, Vancouver, BC V6C 2X8, Canada","{'location': {'lat': 49.2850076, 'lng': -123.1191695}, 'viewport': {'northeast': {'lat': 49.28632942989272, 'lng': -123.1175308701073}, 'southwest': {'lat': 49.28362977010728, 'lng': -123.1202305298928}}}",,49.2850076,-123.1191695
Kasian,"1500 W Georgia St #1685, Vancouver, BC V6G 2Z6, Canada","{'location': {'lat': 49.2901372, 'lng': -123.1306946}, 'viewport': {'northeast': {'lat': 49.29161512989273, 'lng': -123.1291586701073}, 'southwest': {'lat': 49.28891547010728, 'lng': -123.1318583298928}}}",,49.2901372,-123.1306946
Teck Resources Limited,"Bentall 5, 550 Burrard St #3300, Vancouver, BC V6C 0B3, Canada","{'location': {'lat': 49.2858307, 'lng': -123.1185085}, 'viewport': {'northeast': {'lat': 49.28724677989271, 'lng': -123.1172830701073}, 'southwest': {'lat': 49.28454712010727, 'lng': -123.1199827298927}}}",,49.2858307,-123.1185085
Kowarsky Ritson LLP,"808 Nelson St #1008, Vancouver, BC V6Z 2H2, Canada","{'location': {'lat': 49.2798452, 'lng': -123.1246517}, 'viewport': {'northeast': {'lat': 49.28131367989273, 'lng': -123.1231238701072}, 'southwest': {'lat': 49.27861402010728, 'lng': -123.1258235298927}}}",,49.2798452,-123.1246517
Vancouver Financial Planning,"800 W Pender St, Vancouver, BC V6C 2V6, Canada","{'location': {'lat': 49.28526189999999, 'lng': -123.1164446}, 'viewport': {'northeast': {'lat': 49.28671802989273, 'lng': -123.1149312201073}, 'southwest': {'lat': 49.28401837010728, 'lng': -123.1176308798927}}}",,49.28526189999999,-123.1164446
Joel A. Nitikman,"250 Howe St 20th Floor, Vancouver, BC V6C 3R8, Canada","{'location': {'lat': 49.2866724, 'lng': -123.1131683}, 'viewport': {'northeast': {'lat': 49.28788717989272, 'lng': -123.1120184701073}, 'southwest': {'lat': 49.28518752010727, 'lng': -123.1147181298927}}}",,49.2866724,-123.1131683
The Insurance Services Department of London Drugs Ltd.,"2230 W Broadway, Vancouver, BC V6K 2E3, Canada","{'location': {'lat': 49.2637333, 'lng': -123.1562718}, 'viewport': {'northeast': {'lat': 49.26515907989273, 'lng': -123.1549182701073}, 'southwest': {'lat': 49.26245942010728, 'lng': -123.1576179298927}}}",,49.2637333,-123.1562718
CTL Westrans,"1050 W Pender St #640, Vancouver, BC V6E 4T3, Canada","{'location': {'lat': 49.2869813, 'lng': -123.1195788}, 'viewport': {'northeast': {'lat': 49.28845552989272, 'lng': -123.1181436201073}, 'southwest': {'lat': 49.28575587010728, 'lng': -123.1208432798927}}}",,49.2869813,-123.1195788
Leith Wheeler,"400 Burrard St #1500, Vancouver, BC V6C 3A6, Canada","{'location': {'lat': 49.2866059, 'lng': -123.1170683}, 'viewport': {'northeast': {'lat': 49.28807057989272, 'lng': -123.1159033201073}, 'southwest': {'lat': 49.28537092010728, 'lng': -123.1186029798927}}}",,49.2866059,-123.1170683
Pound & Grain,"510 Beatty St #100, Vancouver, BC V6B 2L3, Canada","{'location': {'lat': 49.2809603, 'lng': -123.1087017}, 'viewport': {'northeast': {'lat': 49.28244372989272, 'lng': -123.1071472701072}, 'southwest': {'lat': 49.27974407010728, 'lng': -123.1098469298927}}}",,49.2809603,-123.1087017
Mountain Law Corporation,"By appointment only during COVID times please, 200-1410 Alpha Lake Rd, Whistler, BC V8E 0J3, Canada","{'location': {'lat': 50.0901222, 'lng': -123.0304644}, 'viewport': {'northeast': {'lat': 50.09151097989272, 'lng': -123.0292948701073}, 'southwest': {'lat': 50.08881132010727, 'lng': -123.0319945298927}}}",,50.0901222,-123.0304644
Amica Senior Lifestyles- Vancouver Office,"1111 Melville St Suite 930, Vancouver, BC V6E 3V6, Canada","{'location': {'lat': 49.286993, 'lng': -123.1220944}, 'viewport': {'northeast': {'lat': 49.28822667989272, 'lng': -123.1209394701073}, 'southwest': {'lat': 49.28552702010728, 'lng': -123.1236391298928}}}",,49.286993,-123.1220944
Amica Arbutus Manor,"2125 Eddington Dr, Vancouver, BC V6L 3A9, Canada","{'location': {'lat': 49.2474524, 'lng': -123.1558339}, 'viewport': {'northeast': {'lat': 49.24868257989272, 'lng': -123.1545129201073}, 'southwest': {'lat': 49.24598292010728, 'lng': -123.1572125798927}}}",,49.2474524,-123.1558339
Coastlines Creative Group Inc,"1438 Richards St Ste. 2205, Vancouver, BC V6Z 3B8, Canada","{'location': {'lat': 49.2732654, 'lng': -123.1275965}, 'viewport': {'northeast': {'lat': 49.27471232989272, 'lng': -123.1263969701073}, 'southwest': {'lat': 49.27201267010728, 'lng': -123.1290966298927}}}",,49.2732654,-123.1275965
Hammerco Lawyers LLP,"Suite 1220 Airport Square, 1200 W 73rd Ave, Vancouver, BC V6P 6G5, Canada","{'location': {'lat': 49.2041247, 'lng': -123.1332583}, 'viewport': {'northeast': {'lat': 49.20556122989272, 'lng': -123.1319105201073}, 'southwest': {'lat': 49.20286157010727, 'lng': -123.1346101798927}}}",,49.2041247,-123.1332583
Kowarsky Ritson LLP,"808 Nelson St #1008, Vancouver, BC V6Z 2H2, Canada","{'location': {'lat': 49.2798452, 'lng': -123.1246517}, 'viewport': {'northeast': {'lat': 49.28131367989273, 'lng': -123.1231238701072}, 'southwest': {'lat': 49.27861402010728, 'lng': -123.1258235298927}}}",,49.2798452,-123.1246517
Morguard (Vancouver Regional Office),"969 Robson St #320, Vancouver, BC V6Z 2V7, Canada","{'location': {'lat': 49.2833626, 'lng': -123.1220812}, 'viewport': {'northeast': {'lat': 49.28457872989272, 'lng': -123.1209370701073}, 'southwest': {'lat': 49.28187907010728, 'lng': -123.1236367298928}}}",,49.2833626,-123.1220812
McGregor Dale M,"1200 W 73rd Ave, Vancouver, BC V6P 6G5, Canada","{'location': {'lat': 49.2040516, 'lng': -123.1330719}, 'viewport': {'northeast': {'lat': 49.20552467989272, 'lng': -123.1318173201072}, 'southwest': {'lat': 49.20282502010728, 'lng': -123.1345169798927}}}",,49.2040516,-123.1330719
Gustavson Wylie Architects Inc,"1040 W Georgia St #280, Vancouver, BC V6E 4H1, Canada","{'location': {'lat': 49.2849807, 'lng': -123.1225996}, 'viewport': {'northeast': {'lat': 49.28623642989272, 'lng': -123.1214241201073}, 'southwest': {'lat': 49.28353677010728, 'lng': -123.1241237798927}}}",,49.2849807,-123.1225996
QA Law,"700 W Georgia St, Vancouver, BC V7Y 1K8, Canada","{'location': {'lat': 49.28284319999999, 'lng': -123.1190605}, 'viewport': {'northeast': {'lat': 49.28421787989272, 'lng': -123.1175652701073}, 'southwest': {'lat': 49.28151822010727, 'lng': -123.1202649298927}}}",,49.28284319999999,-123.1190605
McCuaig & Associates Engineering Ltd,"33 E 8th Ave, Vancouver, BC V5T 1R5, Canada","{'location': {'lat': 49.2639523, 'lng': -123.1038598}, 'viewport': {'northeast': {'lat': 49.26530087989271, 'lng': -123.1023748701073}, 'southwest': {'lat': 49.26260122010727, 'lng': -123.1050745298927}}}",,49.2639523,-123.1038598
Murrick Insurance Services,"1045 Howe St, Vancouver, BC V6Z 2A9, Canada","{'location': {'lat': 49.2793966, 'lng': -123.1250455}, 'viewport': {'northeast': {'lat': 49.28070642989272, 'lng': -123.1236333201072}, 'southwest': {'lat': 49.27800677010727, 'lng': -123.1263329798927}}}",,49.2793966,-123.1250455
Options Solutions Educational Consultants,"1549 Marine Dr #303, West Vancouver, BC V7V 1H9, Canada","{'location': {'lat': 49.3287595, 'lng': -123.1578539}, 'viewport': {'northeast': {'lat': 49.32998967989272, 'lng': -123.1565460701072}, 'southwest': {'lat': 49.32729002010728, 'lng': -123.1592457298927}}}",,49.3287595,-123.1578539
Options Solutions Educational Consultants,"3195 Granville St #203, Vancouver, BC V6H 1S5, Canada","{'location': {'lat': 49.2572976, 'lng': -123.1393918}, 'viewport': {'northeast': {'lat': 49.25853377989272, 'lng': -123.1378711701073}, 'southwest': {'lat': 49.25583412010727, 'lng': -123.1405708298927}}}",,49.2572976,-123.1393918
Hayward Ian B,"666 Burrard St, Vancouver, BC V6C 2X8, Canada","{'location': {'lat': 49.2850757, 'lng': -123.1191988}, 'viewport': {'northeast': {'lat': 49.28635102989273, 'lng': -123.1175455201073}, 'southwest': {'lat': 49.28365137010729, 'lng': -123.1202451798927}}}",,49.2850757,-123.1191988
Robin D. Bajer,"207 W Hastings St, Vancouver, BC V6B 1H7, Canada","{'location': {'lat': 49.28283140000001, 'lng': -123.1097389}, 'viewport': {'northeast': {'lat': 49.28411737989272, 'lng': -123.1084328201073}, 'southwest': {'lat': 49.28141772010728, 'lng': -123.1111324798927}}}",,49.28283140000001,-123.1097389
Shape Properties Corporation,"505 Burrard St #2020, Vancouver, BC V7X 1M6, Canada","{'location': {'lat': 49.2865686, 'lng': -123.1182414}, 'viewport': {'northeast': {'lat': 49.28800967989272, 'lng': -123.1167911201073}, 'southwest': {'lat': 49.28531002010727, 'lng': -123.1194907798927}}}",,49.2865686,-123.1182414
Lex Pacifica Law Corporation,"555 Burrard St #1155, Vancouver, BC V7X 1M8, Canada","{'location': {'lat': 49.2862676, 'lng': -123.1189293}, 'viewport': {'northeast': {'lat': 49.28751562989272, 'lng': -123.1174210201073}, 'southwest': {'lat': 49.28481597010727, 'lng': -123.1201206798927}}}",,49.2862676,-123.1189293
Cibc World Markets Inc,"20 Townsite Rd, Nanaimo, BC V9S 5T7, Canada","{'location': {'lat': 49.17875129999999, 'lng': -123.9425614}, 'viewport': {'northeast': {'lat': 49.17973932989272, 'lng': -123.9414663701072}, 'southwest': {'lat': 49.17703967010728, 'lng': -123.9441660298927}}}",,49.17875129999999,-123.9425614
Kestrel Workplace Legal Counsel LLP,"2695 Granville St, Vancouver, BC V6H 3H4, Canada","{'location': {'lat': 49.2619011, 'lng': -123.139001}, 'viewport': {'northeast': {'lat': 49.26316082989272, 'lng': -123.1375636701073}, 'southwest': {'lat': 49.26046117010728, 'lng': -123.1402633298927}}}",,49.2619011,-123.139001
Dentons,"250 Howe St 20th Floor, Vancouver, BC V6C 3R8, Canada","{'location': {'lat': 49.2866872, 'lng': -123.1134189}, 'viewport': {'northeast': {'lat': 49.28803887989272, 'lng': -123.1122312201072}, 'southwest': {'lat': 49.28533922010727, 'lng': -123.1149308798927}}}",,49.2866872,-123.1134189
DLA Piper (Canada) LLP,"666 Burrard St, Vancouver, BC V6C 2Z7, Canada","{'location': {'lat': 49.2850659, 'lng': -123.1191307}, 'viewport': {'northeast': {'lat': 49.28634612989273, 'lng': -123.1175114701073}, 'southwest': {'lat': 49.28364647010728, 'lng': -123.1202111298927}}}",,49.2850659,-123.1191307
Lesperance Mendes Lawyers,"900 Howe St #550, Vancouver, BC V6Z 2M4, Canada","{'location': {'lat': 49.280689, 'lng': -123.122379}, 'viewport': {'northeast': {'lat': 49.28211557989272, 'lng': -123.1211415701073}, 'southwest': {'lat': 49.27941592010728, 'lng': -123.1238412298927}}}",,49.280689,-123.122379
DuMoulin Black LLP,"595 Howe St 10th floor, Vancouver, BC V6C 2T5, Canada","{'location': {'lat': 49.284532, 'lng': -123.117506}, 'viewport': {'northeast': {'lat': 49.28580197989272, 'lng': -123.1161752701073}, 'southwest': {'lat': 49.28310232010728, 'lng': -123.1188749298927}}}",,49.284532,-123.117506
Response Advertising,"409 Granville St Suite 1157, Vancouver, BC V6C 1T2, Canada","{'location': {'lat': 49.28534579999999, 'lng': -123.1145372}, 'viewport': {'northeast': {'lat': 49.28671152989273, 'lng': -123.1129429201073}, 'southwest': {'lat': 49.28401187010729, 'lng': -123.1156425798928}}}",,49.28534579999999,-123.1145372
Praxis Legal,"3159 Cambie St, Vancouver, BC V5Z 4N2, Canada","{'location': {'lat': 49.2575666, 'lng': -123.1153777}, 'viewport': {'northeast': {'lat': 49.25897497989272, 'lng': -123.1139288201073}, 'southwest': {'lat': 49.25627532010728, 'lng': -123.1166284798927}}}",,49.2575666,-123.1153777
Crowe MacKay LLP,"1177 W Hastings St, Vancouver, BC V6E 4T5, Canada","{'location': {'lat': 49.2886049, 'lng': -123.1216285}, 'viewport': {'northeast': {'lat': 49.28990092989272, 'lng': -123.1203158201073}, 'southwest': {'lat': 49.28720127010727, 'lng': -123.1230154798927}}}",,49.2886049,-123.1216285
DLA Piper (Canada) LLP,"666 Burrard St, Vancouver, BC V6C 2Z7, Canada","{'location': {'lat': 49.2850659, 'lng': -123.1191307}, 'viewport': {'northeast': {'lat': 49.28634612989273, 'lng': -123.1175114701073}, 'southwest': {'lat': 49.28364647010728, 'lng': -123.1202111298927}}}",,49.2850659,-123.1191307
DIALOG,"611 Alexander St Suite 400, Vancouver, BC V6A 1E1, Canada","{'location': {'lat': 49.2843319, 'lng': -123.0906563}, 'viewport': {'northeast': {'lat': 49.28548277989272, 'lng': -123.0893140201073}, 'southwest': {'lat': 49.28278312010728, 'lng': -123.0920136798927}}}",,49.2843319,-123.0906563
WEX Pharmaceuticals Inc.,"1100 Melville St Suite 1150, Vancouver, BC V6E 4A6, Canada","{'location': {'lat': 49.28668820000001, 'lng': -123.1230105}, 'viewport': {'northeast': {'lat': 49.28806532989272, 'lng': -123.1214133201073}, 'southwest': {'lat': 49.28536567010728, 'lng': -123.1241129798927}}}",,49.28668820000001,-123.1230105
Element Lifestyle Retirement,"1147 Homer St, Vancouver, BC V6B 2G2, Canada","{'location': {'lat': 49.2757397, 'lng': -123.1228737}, 'viewport': {'northeast': {'lat': 49.27708952989271, 'lng': -123.1215238701073}, 'southwest': {'lat': 49.27438987010726, 'lng': -123.1242235298927}}}",,49.2757397,-123.1228737
"Pacific Ag Management, Inc.","29341 Kimberlina Rd, Wasco, CA 93280, United States","{'location': {'lat': 35.5571441, 'lng': -119.3236236}, 'viewport': {'northeast': {'lat': 35.55892942989272, 'lng': -119.3222749201073}, 'southwest': {'lat': 35.55622977010728, 'lng': -119.3249745798927}}}",,35.5571441,-119.3236236
DLA Piper (Canada) LLP,"666 Burrard St, Vancouver, BC V6C 2Z7, Canada","{'location': {'lat': 49.2850659, 'lng': -123.1191307}, 'viewport': {'northeast': {'lat': 49.28634612989273, 'lng': -123.1175114701073}, 'southwest': {'lat': 49.28364647010728, 'lng': -123.1202111298927}}}",,49.2850659,-123.1191307
OnPoint Legal Research Law Corporation,"522-5525 West Blvd, Vancouver, BC V6M 3W6, Canada","{'location': {'lat': 49.2360982, 'lng': -123.1556962}, 'viewport': {'northeast': {'lat': 49.23752257989272, 'lng': -123.1542655701073}, 'southwest': {'lat': 49.23482292010728, 'lng': -123.1569652298927}}}",,49.2360982,-123.1556962
Warrington PCI Management,"1030 W Georgia St #300, Vancouver, BC V6E 2Y3, Canada","{'location': {'lat': 49.2842859, 'lng': -123.1216472}, 'viewport': {'northeast': {'lat': 49.28568217989272, 'lng': -123.1201465201073}, 'southwest': {'lat': 49.28298252010728, 'lng': -123.1228461798927}}}",,49.2842859,-123.1216472
Oxygen Capital Corporation,"1055 W Hastings St Suite 1900, Vancouver, BC V6E 2E9, Canada","{'location': {'lat': 49.2877332, 'lng': -123.1182842}, 'viewport': {'northeast': {'lat': 49.28897842989272, 'lng': -123.1169844701073}, 'southwest': {'lat': 49.28627877010728, 'lng': -123.1196841298927}}}",,49.2877332,-123.1182842
Saliance Global Holdings,"1720-505 Burrard St, Vancouver, BC V7X 1M6, Canada","{'location': {'lat': 49.2865917, 'lng': -123.1185578}, 'viewport': {'northeast': {'lat': 49.28779507989272, 'lng': -123.1170568701073}, 'southwest': {'lat': 49.28509542010728, 'lng': -123.1197565298927}}}",,49.2865917,-123.1185578
GrowthWorks Capital Ltd,"1055 W Georgia St Suite 2080, Vancouver, BC V6E 3R5, Canada","{'location': {'lat': 49.2853422, 'lng': -123.121564}, 'viewport': {'northeast': {'lat': 49.28653327989272, 'lng': -123.1204509201073}, 'southwest': {'lat': 49.28383362010727, 'lng': -123.1231505798927}}}",,49.2853422,-123.121564
Premier Marine,"625 Howe St, Vancouver, BC V6C 2T6, Canada","{'location': {'lat': 49.2842734, 'lng': -123.1179205}, 'viewport': {'northeast': {'lat': 49.28554447989272, 'lng': -123.1164565201073}, 'southwest': {'lat': 49.28284482010728, 'lng': -123.1191561798928}}}",,49.2842734,-123.1179205
Gary R. Sollis,"250 Howe St #20, Vancouver, BC V6C 3R8, Canada","{'location': {'lat': 49.2866747, 'lng': -123.1131898}, 'viewport': {'northeast': {'lat': 49.28803887989272, 'lng': -123.1121166701073}, 'southwest': {'lat': 49.28533922010727, 'lng': -123.1148163298927}}}",,49.2866747,-123.1131898
Christopher Bennett,"96 Poulton Rd, Fleetwood FY7 6TQ, United Kingdom","{'location': {'lat': 53.921065, 'lng': -3.0205543}, 'viewport': {'northeast': {'lat': 53.92236627989272, 'lng': -3.019177820107278}, 'southwest': {'lat': 53.91966662010728, 'lng': -3.021877479892722}}}",True,53.921065,-3.0205543
Chubb Insurance Co Of Canada,"250 Howe St, Vancouver, BC V6C 3R8, Canada","{'location': {'lat': 49.2866229, 'lng': -123.1132856}, 'viewport': {'northeast': {'lat': 49.28786242989272, 'lng': -123.1120771201073}, 'southwest': {'lat': 49.28516277010728, 'lng': -123.1147767798927}}}",,49.2866229,-123.1132856
Megan Ellis & Company,"555 W Georgia St #700, Vancouver, BC V6B 1Z6, Canada","{'location': {'lat': 49.2815913, 'lng': -123.1162121}, 'viewport': {'northeast': {'lat': 49.28285792989272, 'lng': -123.1149892701073}, 'southwest': {'lat': 49.28015827010728, 'lng': -123.1176889298927}}}",,49.2815913,-123.1162121
RMT Gibson Gaelen,"2083 Alma St #303, Vancouver, BC V6R 4N6, Canada","{'location': {'lat': 49.2679369, 'lng': -123.1864842}, 'viewport': {'northeast': {'lat': 49.26963442989271, 'lng': -123.1849607701073}, 'southwest': {'lat': 49.26693477010727, 'lng': -123.1876604298927}}}",,49.2679369,-123.1864842
Gateway Law Corporation,"237 Keefer St, Vancouver, BC V6A 1X6, Canada","{'location': {'lat': 49.27971220000001, 'lng': -123.0985898}, 'viewport': {'northeast': {'lat': 49.28093717989272, 'lng': -123.0972450701073}, 'southwest': {'lat': 49.27823752010728, 'lng': -123.0999447298927}}}",,49.27971220000001,-123.0985898
Woodbridge Homes Ltd.,"1450 Creekside Dr #200, Vancouver, BC V6J 5B3, Canada","{'location': {'lat': 49.2733285, 'lng': -123.1402482}, 'viewport': {'northeast': {'lat': 49.27466082989272, 'lng': -123.1387670701072}, 'southwest': {'lat': 49.27196117010728, 'lng': -123.1414667298927}}}",,49.2733285,-123.1402482
Gary Vlug Barrister and Solicitor,"4968 Victoria Dr, Vancouver, BC V5P 3T6, Canada","{'location': {'lat': 49.239259, 'lng': -123.065071}, 'viewport': {'northeast': {'lat': 49.24058702989272, 'lng': -123.0638648201073}, 'southwest': {'lat': 49.23788737010728, 'lng': -123.0665644798927}}}",,49.239259,-123.065071
City Wide Mortgage Services,"1245 W Broadway Suite 103, Vancouver, BC V6H 1G7, Canada","{'location': {'lat': 49.263673, 'lng': -123.1325489}, 'viewport': {'northeast': {'lat': 49.26494087989272, 'lng': -123.1312024201072}, 'southwest': {'lat': 49.26224122010727, 'lng': -123.1339020798927}}}",,49.263673,-123.1325489
Callinex Mines Inc.,"555 W Hastings St, Vancouver, BC V6B 1M1, Canada","{'location': {'lat': 49.28460880000001, 'lng': -123.1122151}, 'viewport': {'northeast': {'lat': 49.28602952989272, 'lng': -123.1111368201073}, 'southwest': {'lat': 49.28332987010728, 'lng': -123.1138364798927}}}",,49.28460880000001,-123.1122151
Blue Tree Management Ltd,"1500 W Georgia St #1300, Vancouver, BC V6G 2Z6, Canada","{'location': {'lat': 49.2900321, 'lng': -123.1306911}, 'viewport': {'northeast': {'lat': 49.29153232989271, 'lng': -123.1291094701073}, 'southwest': {'lat': 49.28883267010727, 'lng': -123.1318091298927}}}",,49.2900321,-123.1306911
Rishi Gill,"355 Burrard St #1000, Vancouver, BC V6C 2G8, Canada","{'location': {'lat': 49.2874861, 'lng': -123.1171154}, 'viewport': {'northeast': {'lat': 49.28873397989272, 'lng': -123.1156007701072}, 'southwest': {'lat': 49.28603432010728, 'lng': -123.1183004298927}}}",,49.2874861,-123.1171154
QA Law,"700 W Georgia St, Vancouver, BC V7Y 1K8, Canada","{'location': {'lat': 49.28284319999999, 'lng': -123.1190605}, 'viewport': {'northeast': {'lat': 49.28421787989272, 'lng': -123.1175652701073}, 'southwest': {'lat': 49.28151822010727, 'lng': -123.1202649298927}}}",,49.28284319999999,-123.1190605
ECL Americas Inc,"301 E Ocean Blvd # 640, Long Beach, CA 90802, United States","{'location': {'lat': 33.7674283, 'lng': -118.188499}, 'viewport': {'northeast': {'lat': 33.76860582989272, 'lng': -118.1870845701073}, 'southwest': {'lat': 33.76590617010728, 'lng': -118.1897842298927}}}",,33.7674283,-118.188499
Hayward Ian B,"666 Burrard St, Vancouver, BC V6C 2X8, Canada","{'location': {'lat': 49.2850757, 'lng': -123.1191988}, 'viewport': {'northeast': {'lat': 49.28635102989273, 'lng': -123.1175455201073}, 'southwest': {'lat': 49.28365137010729, 'lng': -123.1202451798927}}}",,49.2850757,-123.1191988
Odin Mining & Exploration Ltd,"625 Howe St #410, Vancouver, BC V6C 2T6, Canada","{'location': {'lat': 49.2842734, 'lng': -123.1179205}, 'viewport': {'northeast': {'lat': 49.28554447989272, 'lng': -123.1164565201073}, 'southwest': {'lat': 49.28284482010728, 'lng': -123.1191561798928}}}",,49.2842734,-123.1179205
lululemon,"1818 Cornwall Ave, Vancouver, BC V6J 1C7, Canada","{'location': {'lat': 49.27195760000001, 'lng': -123.1469671}, 'viewport': {'northeast': {'lat': 49.27336962989272, 'lng': -123.1460423701073}, 'southwest': {'lat': 49.27066997010728, 'lng': -123.1487420298927}}}",,49.27195760000001,-123.1469671
Turner & Townsend cm2r Inc,"1390 Prince of Wales Dr, Ottawa, ON K2C 3N6, Canada","{'location': {'lat': 45.3693009, 'lng': -75.703418}, 'viewport': {'northeast': {'lat': 45.37057242989271, 'lng': -75.70199792010727}, 'southwest': {'lat': 45.36787277010727, 'lng': -75.70469757989272}}}",True,45.3693009,-75.703418
SNC-Lavalin Inc,"745 Thurlow St #500, Vancouver, BC V6E 0C5, Canada","{'location': {'lat': 49.2853889, 'lng': -123.1245039}, 'viewport': {'northeast': {'lat': 49.28664092989272, 'lng': -123.1228920201072}, 'southwest': {'lat': 49.28394127010728, 'lng': -123.1255916798927}}}",,49.2853889,-123.1245039
SNC-Lavalin,"8648 Commerce Ct, Burnaby, BC V5A 4N6, Canada","{'location': {'lat': 49.2536486, 'lng': -122.9136593}, 'viewport': {'northeast': {'lat': 49.25494152989272, 'lng': -122.9122728201073}, 'southwest': {'lat': 49.25224187010727, 'lng': -122.9149724798927}}}",,49.2536486,-122.9136593
Northern Iron Corporation,"409 Granville St, Vancouver, BC V6C 1T2, Canada","{'location': {'lat': 49.28534579999999, 'lng': -123.1145372}, 'viewport': {'northeast': {'lat': 49.28671152989273, 'lng': -123.1129429201073}, 'southwest': {'lat': 49.28401187010729, 'lng': -123.1156425798928}}}",,49.28534579999999,-123.1145372
Coriolis Consulting Corporation,"1130 W Pender St, Vancouver, BC V6E 4A4, Canada","{'location': {'lat': 49.2874879, 'lng': -123.1215984}, 'viewport': {'northeast': {'lat': 49.28893812989273, 'lng': -123.1200432201072}, 'southwest': {'lat': 49.28623847010729, 'lng': -123.1227428798927}}}",,49.2874879,-123.1215984
Allworld Packaging Supplies Ltd,"1023 Clark Dr, Vancouver, BC V5L 3K1, Canada","{'location': {'lat': 49.275493, 'lng': -123.077651}, 'viewport': {'northeast': {'lat': 49.27673467989272, 'lng': -123.0761297201072}, 'southwest': {'lat': 49.27403502010728, 'lng': -123.0788293798927}}}",,49.275493,-123.077651
RPG,"1525 W 8th Ave #205, Vancouver, BC V6J 1T5, Canada","{'location': {'lat': 49.2647534, 'lng': -123.1394664}, 'viewport': {'northeast': {'lat': 49.26598672989272, 'lng': -123.1381221701073}, 'southwest': {'lat': 49.26328707010727, 'lng': -123.1408218298927}}}",,49.2647534,-123.1394664
Gowling WLG,"550 Burrard St #2300, Vancouver, BC V6C 2B5, Canada","{'location': {'lat': 49.285805, 'lng': -123.1182359}, 'viewport': {'northeast': {'lat': 49.28723637989272, 'lng': -123.1171467701073}, 'southwest': {'lat': 49.28453672010728, 'lng': -123.1198464298927}}}",,49.285805,-123.1182359
DLA Piper (Canada) LLP,"666 Burrard St, Vancouver, BC V6C 2Z7, Canada","{'location': {'lat': 49.2850659, 'lng': -123.1191307}, 'viewport': {'northeast': {'lat': 49.28634612989273, 'lng': -123.1175114701073}, 'southwest': {'lat': 49.28364647010728, 'lng': -123.1202111298927}}}",,49.2850659,-123.1191307
Dentons,"250 Howe St 20th Floor, Vancouver, BC V6C 3R8, Canada","{'location': {'lat': 49.2866872, 'lng': -123.1134189}, 'viewport': {'northeast': {'lat': 49.28803887989272, 'lng': -123.1122312201072}, 'southwest': {'lat': 49.28533922010727, 'lng': -123.1149308798927}}}",,49.2866872,-123.1134189
Reid Brothers Plumbing and Heating Ltd.,"1636 W 75th Ave, Vancouver, BC V6P 6G2, Canada","{'location': {'lat': 49.205475, 'lng': -123.145825}, 'viewport': {'northeast': {'lat': 49.20664982989273, 'lng': -123.1440323701073}, 'southwest': {'lat': 49.20395017010728, 'lng': -123.1467320298927}}}",,49.205475,-123.145825
HUB Financial,"1185 W Georgia St #800, Vancouver, BC V6E 4E6, Canada","{'location': {'lat': 49.2871886, 'lng': -123.124696}, 'viewport': {'northeast': {'lat': 49.28860482989272, 'lng': -123.1234848201073}, 'southwest': {'lat': 49.28590517010728, 'lng': -123.1261844798927}}}",,49.2871886,-123.124696
HUB Financial,"10271 Shellbridge Way #210, Richmond, BC V6X 2W8, Canada","{'location': {'lat': 49.185866, 'lng': -123.105649}, 'viewport': {'northeast': {'lat': 49.18704607989272, 'lng': -123.1041661701072}, 'southwest': {'lat': 49.18434642010727, 'lng': -123.1068658298927}}}",,49.185866,-123.105649
Wishpond,"1000 W Georgia St, Vancouver, BC V6Z 2P1, Canada","{'location': {'lat': 49.284328, 'lng': -123.1215049}, 'viewport': {'northeast': {'lat': 49.28576997989271, 'lng': -123.1200176201073}, 'southwest': {'lat': 49.28307032010727, 'lng': -123.1227172798927}}}",,49.284328,-123.1215049
University of Calgary,"2500 University Dr NW, Calgary, AB T2N 1N4, Canada","{'location': {'lat': 51.0775908, 'lng': -114.140695}, 'viewport': {'northeast': {'lat': 51.07894062989273, 'lng': -114.1393451701073}, 'southwest': {'lat': 51.07624097010729, 'lng': -114.1420448298927}}}",,51.0775908,-114.140695
Nexterra Systems Corp.,"650 W Georgia St, Vancouver, BC V6B 4N8, Canada","{'location': {'lat': 49.2819176, 'lng': -123.1180511}, 'viewport': {'northeast': {'lat': 49.28306922989272, 'lng': -123.1165642201073}, 'southwest': {'lat': 49.28036957010728, 'lng': -123.1192638798927}}}",,49.2819176,-123.1180511
First Quantum Minerals Ltd,"543 Granville St, Vancouver, BC V6C 1X8, Canada","{'location': {'lat': 49.2843723, 'lng': -123.1158967}, 'viewport': {'northeast': {'lat': 49.28562637989273, 'lng': -123.1144008701072}, 'southwest': {'lat': 49.28292672010728, 'lng': -123.1171005298927}}}",,49.2843723,-123.1158967
Martin And Karen's,"207-7025B Stride Ave, Burnaby, BC V3N 4Y2, Canada","{'location': {'lat': 49.211854, 'lng': -122.955283}, 'viewport': {'northeast': {'lat': 49.21306447989272, 'lng': -122.9537459701072}, 'southwest': {'lat': 49.21036482010728, 'lng': -122.9564456298927}}}",,49.211854,-122.955283
New World Projects Ltd,"7633 Nanaimo St, Vancouver, BC V5P 4M6, Canada","{'location': {'lat': 49.21520340000001, 'lng': -123.0593574}, 'viewport': {'northeast': {'lat': 49.21655377989271, 'lng': -123.0580369701073}, 'southwest': {'lat': 49.21385412010727, 'lng': -123.0607366298927}}}",,49.21520340000001,-123.0593574
Roger Douglas MD,"69730 CA-111 #114, Rancho Mirage, CA 92270, United States","{'location': {'lat': 33.773434, 'lng': -116.4467415}, 'viewport': {'northeast': {'lat': 33.77483432989272, 'lng': -116.4454727201073}, 'southwest': {'lat': 33.77213467010728, 'lng': -116.4481723798928}}}",,33.773434,-116.4467415
Radiant City Architecture,"1118 Homer St Suite 222, Vancouver, BC V6B 6L5, Canada","{'location': {'lat': 49.276066, 'lng': -123.1218179}, 'viewport': {'northeast': {'lat': 49.27745847989272, 'lng': -123.1205367701073}, 'southwest': {'lat': 49.27475882010727, 'lng': -123.1232364298927}}}",,49.276066,-123.1218179
McIntyre Ruth E,"355 Burrard St, Vancouver, BC V6C 2G8, Canada","{'location': {'lat': 49.2874624, 'lng': -123.1170457}, 'viewport': {'northeast': {'lat': 49.28872722989271, 'lng': -123.1155585201073}, 'southwest': {'lat': 49.28602757010727, 'lng': -123.1182581798927}}}",,49.2874624,-123.1170457
"Law Library at Allard Hall, UBC","Allard Hall, 1822 E Mall, Vancouver, BC V6T 1Z1, Canada","{'location': {'lat': 49.2697953, 'lng': -123.2535896}, 'viewport': {'northeast': {'lat': 49.27112137989272, 'lng': -123.2523109701073}, 'southwest': {'lat': 49.26842172010728, 'lng': -123.2550106298927}}}",True,49.2697953,-123.2535896
Shaw L Blair DPM,"Commerce Title Bldg, Memphis, TN 38103, United States","{'location': {'lat': 35.1543632, 'lng': -90.06066369999999}, 'viewport': {'northeast': {'lat': 35.15538127989272, 'lng': -90.0557779}, 'southwest': {'lat': 35.15268162010727, 'lng': -90.0622923}}}",,35.1543632,-90.06066369999999
Realacorp Management Ltd,"1867 W Broadway, Vancouver, BC V6J 4W1, Canada","{'location': {'lat': 49.2639991, 'lng': -123.1472191}, 'viewport': {'northeast': {'lat': 49.26524237989273, 'lng': -123.1458725201073}, 'southwest': {'lat': 49.26254272010728, 'lng': -123.1485721798927}}}",,49.2639991,-123.1472191
"Shelley K. Bunting, FNP","958 Vandora Springs Rd, Garner, NC 27529, United States","{'location': {'lat': 35.7090131, 'lng': -78.6250005}, 'viewport': {'northeast': {'lat': 35.71030732989273, 'lng': -78.62355237010728}, 'southwest': {'lat': 35.70760767010729, 'lng': -78.62625202989273}}}",,35.7090131,-78.6250005
IWJ Law,"1055 W Georgia St Suite 2090, Vancouver, BC V6E 3R5, Canada","{'location': {'lat': 49.2853911, 'lng': -123.1215501}, 'viewport': {'northeast': {'lat': 49.28656737989272, 'lng': -123.1204591201073}, 'southwest': {'lat': 49.28386772010728, 'lng': -123.1231587798927}}}",,49.2853911,-123.1215501
Pacific Northwest National Laboratory,"902 Battelle Blvd, Richland, WA 99354, United States","{'location': {'lat': 46.3451404, 'lng': -119.2792298}, 'viewport': {'northeast': {'lat': 46.36549779999999, 'lng': -119.26314735}, 'southwest': {'lat': 46.3222238, 'lng': -119.29010115}}}",,46.3451404,-119.2792298
Allnorth,"1100 Melville St #1200, Vancouver, BC V6E 4A6, Canada","{'location': {'lat': 49.2867262, 'lng': -123.122941}, 'viewport': {'northeast': {'lat': 49.28806532989272, 'lng': -123.1213785701073}, 'southwest': {'lat': 49.28536567010728, 'lng': -123.1240782298927}}}",,49.2867262,-123.122941
The University of British Columbia,"Vancouver, BC V6T 1Z4, Canada","{'location': {'lat': 49.26060520000001, 'lng': -123.2459938}, 'viewport': {'northeast': {'lat': 49.28261634999999, 'lng': -123.21947235}, 'southwest': {'lat': 49.23265135, 'lng': -123.26827175}}}",,49.26060520000001,-123.2459938
Oceanic Underwriters Ltd,"625 Howe St, Vancouver, BC V6C 2T6, Canada","{'location': {'lat': 49.2842734, 'lng': -123.1179205}, 'viewport': {'northeast': {'lat': 49.28554447989272, 'lng': -123.1164565201073}, 'southwest': {'lat': 49.28284482010728, 'lng': -123.1191561798928}}}",,49.2842734,-123.1179205
George & Bell Consulting Inc.,"601 W Broadway M2, Vancouver, BC V5Z 4C2, Canada","{'location': {'lat': 49.26373599999999, 'lng': -123.118005}, 'viewport': {'northeast': {'lat': 49.26485557989272, 'lng': -123.1167241701073}, 'southwest': {'lat': 49.26215592010728, 'lng': -123.1194238298927}}}",,49.26373599999999,-123.118005
The University of British Columbia,"Vancouver, BC V6T 1Z4, Canada","{'location': {'lat': 49.26060520000001, 'lng': -123.2459938}, 'viewport': {'northeast': {'lat': 49.28261634999999, 'lng': -123.21947235}, 'southwest': {'lat': 49.23265135, 'lng': -123.26827175}}}",,49.26060520000001,-123.2459938
DLA Piper (Canada) LLP,"666 Burrard St, Vancouver, BC V6C 2Z7, Canada","{'location': {'lat': 49.2850659, 'lng': -123.1191307}, 'viewport': {'northeast': {'lat': 49.28634612989273, 'lng': -123.1175114701073}, 'southwest': {'lat': 49.28364647010728, 'lng': -123.1202111298927}}}",,49.2850659,-123.1191307
Omicron,"595 Burrard Street Three Bentall Centre, Fifth Floor, Vancouver, BC V7X 1L4, Canada","{'location': {'lat': 49.286022, 'lng': -123.119605}, 'viewport': {'northeast': {'lat': 49.28726547989272, 'lng': -123.1183661701073}, 'southwest': {'lat': 49.28456582010728, 'lng': -123.1210658298927}}}",,49.286022,-123.119605
Baywest Property Management Corporation,"2689 Pkwy, Surrey, BC, Canada","{'location': {'lat': 49.0515013, 'lng': -122.7971336}, 'viewport': {'northeast': {'lat': 49.05284987989273, 'lng': -122.7957418701072}, 'southwest': {'lat': 49.05015022010728, 'lng': -122.7984415298927}}}",,49.0515013,-122.7971336
PH&N Investment Services,"200 Burrard St 20th Floor, Vancouver, BC V6C 3N5, Canada","{'location': {'lat': 49.2877234, 'lng': -123.1151452}, 'viewport': {'northeast': {'lat': 49.28915917989271, 'lng': -123.1135642201072}, 'southwest': {'lat': 49.28645952010727, 'lng': -123.1162638798927}}}",,49.2877234,-123.1151452
RBC PH&N Investment Counsel,"1055 W Georgia St 34th floor, Vancouver, BC V6E 3P3, Canada","{'location': {'lat': 49.2853911, 'lng': -123.1215501}, 'viewport': {'northeast': {'lat': 49.28656737989272, 'lng': -123.1204591201073}, 'southwest': {'lat': 49.28386772010728, 'lng': -123.1231587798927}}}",,49.2853911,-123.1215501
Forrest C Hume Law Corporation,"1080 Howe St, Vancouver, BC V6Z 1P5, Canada","{'location': {'lat': 49.2789221, 'lng': -123.1251974}, 'viewport': {'northeast': {'lat': 49.28030312989272, 'lng': -123.1239492201073}, 'southwest': {'lat': 49.27760347010727, 'lng': -123.1266488798927}}}",,49.2789221,-123.1251974
DLA Piper (Canada) LLP,"666 Burrard St, Vancouver, BC V6C 2Z7, Canada","{'location': {'lat': 49.2850659, 'lng': -123.1191307}, 'viewport': {'northeast': {'lat': 49.28634612989273, 'lng': -123.1175114701073}, 'southwest': {'lat': 49.28364647010728, 'lng': -123.1202111298927}}}",,49.2850659,-123.1191307
Canis Majoris Invest Sp. Z O.o.,"Marynarska 19A, 02-674 Warszawa, Poland","{'location': {'lat': 52.17926989999999, 'lng': 20.995787}, 'viewport': {'northeast': {'lat': 52.18073012989272, 'lng': 20.99720747989272}, 'southwest': {'lat': 52.17803047010727, 'lng': 20.99450782010728}}}",,52.17926989999999,20.995787
Vital Synergy Mind Fitness Inc.,"224 Esplanade W Unit 201, North Vancouver, BC V7M 1A4, Canada","{'location': {'lat': 49.3131108, 'lng': -123.0834629}, 'viewport': {'northeast': {'lat': 49.31433937989271, 'lng': -123.0822356201073}, 'southwest': {'lat': 49.31163972010727, 'lng': -123.0849352798927}}}",,49.3131108,-123.0834629
Thurber Engineering Ltd,"900-1281 W Georgia St W, Vancouver, BC V6E 3J7, Canada","{'location': {'lat': 49.288154, 'lng': -123.126223}, 'viewport': {'northeast': {'lat': 49.28956242989272, 'lng': -123.1250969201073}, 'southwest': {'lat': 49.28686277010728, 'lng': -123.1277965798927}}}",,49.288154,-123.126223
Thurber Engineering Ltd,"4464 Markham St Suite 2302, Victoria, BC V8Z 7X8, Canada","{'location': {'lat': 48.4935108, 'lng': -123.41126}, 'viewport': {'northeast': {'lat': 48.49471612989272, 'lng': -123.4096849701073}, 'southwest': {'lat': 48.49201647010728, 'lng': -123.4123846298927}}}",,48.4935108,-123.41126
Federated Agencies Ltd,"5600 Cancross Ct, Mississauga, ON L5R 3E9, Canada","{'location': {'lat': 43.6147842, 'lng': -79.6740643}, 'viewport': {'northeast': {'lat': 43.61617707989272, 'lng': -79.67278652010728}, 'southwest': {'lat': 43.61347742010728, 'lng': -79.67548617989273}}}",,43.6147842,-79.6740643
QA Law,"700 W Georgia St, Vancouver, BC V7Y 1K8, Canada","{'location': {'lat': 49.28284319999999, 'lng': -123.1190605}, 'viewport': {'northeast': {'lat': 49.28421787989272, 'lng': -123.1175652701073}, 'southwest': {'lat': 49.28151822010727, 'lng': -123.1202649298927}}}",,49.28284319999999,-123.1190605
Canusa Wood,"500-1281 W Georgia St, Vancouver, BC V6E 3J7, Canada","{'location': {'lat': 49.2812303, 'lng': -123.116254}, 'viewport': {'northeast': {'lat': 49.28258642989272, 'lng': -123.1148946201073}, 'southwest': {'lat': 49.27988677010728, 'lng': -123.1175942798927}}}",,49.2812303,-123.116254
Nova Pacific Environmental,"97 N Renfrew St, Vancouver, BC V5K 3N6, Canada","{'location': {'lat': 49.2855235, 'lng': -123.0445246}, 'viewport': {'northeast': {'lat': 49.28695837989272, 'lng': -123.0431674701073}, 'southwest': {'lat': 49.28425872010727, 'lng': -123.0458671298927}}}",,49.2855235,-123.0445246
Teligence,"303 W Pender St 3rd Floor, Vancouver, BC V6B 1T3, Canada","{'location': {'lat': 49.2823299, 'lng': -123.1110261}, 'viewport': {'northeast': {'lat': 49.28362032989273, 'lng': -123.1096604701073}, 'southwest': {'lat': 49.28092067010728, 'lng': -123.1123601298927}}}",,49.2823299,-123.1110261
Peterson,"1166 Alberni St 17th Floor, Vancouver, BC V6E 3Z3, Canada","{'location': {'lat': 49.2861863, 'lng': -123.1254321}, 'viewport': {'northeast': {'lat': 49.28753712989272, 'lng': -123.1239618201073}, 'southwest': {'lat': 49.28483747010728, 'lng': -123.1266614798927}}}",,49.2861863,-123.1254321
Turaglio Mc Phreson,"355 Burrard St, Vancouver, BC V6C 2G8, Canada","{'location': {'lat': 49.287648, 'lng': -123.1173085}, 'viewport': {'northeast': {'lat': 49.28882237989272, 'lng': -123.1156863701073}, 'southwest': {'lat': 49.28612272010728, 'lng': -123.1183860298927}}}",,49.287648,-123.1173085
Teligence,"303 W Pender St 3rd Floor, Vancouver, BC V6B 1T3, Canada","{'location': {'lat': 49.2823299, 'lng': -123.1110261}, 'viewport': {'northeast': {'lat': 49.28362032989273, 'lng': -123.1096604701073}, 'southwest': {'lat': 49.28092067010728, 'lng': -123.1123601298927}}}",,49.2823299,-123.1110261
Gowling WLG,"550 Burrard St #2300, Vancouver, BC V6C 2B5, Canada","{'location': {'lat': 49.285805, 'lng': -123.1182359}, 'viewport': {'northeast': {'lat': 49.28723637989272, 'lng': -123.1171467701073}, 'southwest': {'lat': 49.28453672010728, 'lng': -123.1198464298927}}}",,49.285805,-123.1182359
Oakwyn Marketing Ltd.,"3195 Oak St, Vancouver, BC V6H 2L2, Canada","{'location': {'lat': 49.2573344, 'lng': -123.1275176}, 'viewport': {'northeast': {'lat': 49.25868482989272, 'lng': -123.1260268201073}, 'southwest': {'lat': 49.25598517010728, 'lng': -123.1287264798927}}}",,49.2573344,-123.1275176
Dentons,"250 Howe St 20th Floor, Vancouver, BC V6C 3R8, Canada","{'location': {'lat': 49.2866872, 'lng': -123.1134189}, 'viewport': {'northeast': {'lat': 49.28803887989272, 'lng': -123.1122312201072}, 'southwest': {'lat': 49.28533922010727, 'lng': -123.1149308798927}}}",,49.2866872,-123.1134189
OOCL Canada Inc,"555 W Hastings St #1560, Vancouver, BC V6G 3J4, Canada","{'location': {'lat': 49.2909302, 'lng': -123.1294516}, 'viewport': {'northeast': {'lat': 49.29237502989272, 'lng': -123.1282238201073}, 'southwest': {'lat': 49.28967537010728, 'lng': -123.1309234798927}}}",,49.2909302,-123.1294516
Oakwest Insurance,"6260 East Blvd, Vancouver, BC V6M 3V7, Canada","{'location': {'lat': 49.2293722, 'lng': -123.1550599}, 'viewport': {'northeast': {'lat': 49.23072202989273, 'lng': -123.1537100701073}, 'southwest': {'lat': 49.22802237010729, 'lng': -123.1564097298927}}}",,49.2293722,-123.1550599
Goldcorp Inc,"666 Burrard St #3400, Vancouver, BC V6C 2X8, Canada","{'location': {'lat': 49.2849923, 'lng': -123.1192511}, 'viewport': {'northeast': {'lat': 49.28632942989272, 'lng': -123.1175716701073}, 'southwest': {'lat': 49.28362977010728, 'lng': -123.1202713298928}}}",,49.2849923,-123.1192511
Immi Canada Immigration,"409 Granville St Suite 354, Vancouver, BC V6C 1T2, Canada","{'location': {'lat': 49.2853551, 'lng': -123.1142166}, 'viewport': {'northeast': {'lat': 49.28671152989273, 'lng': -123.1127826201073}, 'southwest': {'lat': 49.28401187010729, 'lng': -123.1154822798927}}}",,49.2853551,-123.1142166
T E Financial Consultants Ltd,"475 W Georgia St #540, Vancouver, BC V6B 3A3, Canada","{'location': {'lat': 49.28128599999999, 'lng': -123.1157816}, 'viewport': {'northeast': {'lat': 49.28255982989272, 'lng': -123.1145538201073}, 'southwest': {'lat': 49.27986017010727, 'lng': -123.1172534798927}}}",,49.28128599999999,-123.1157816
I C S Petroleum Ltd,"1066 W Hastings St, Vancouver, BC V6E 3X1, Canada","{'location': {'lat': 49.2874847, 'lng': -123.1190548}, 'viewport': {'northeast': {'lat': 49.28892072989272, 'lng': -123.1175972201072}, 'southwest': {'lat': 49.28622107010727, 'lng': -123.1202968798927}}}",,49.2874847,-123.1190548
Holmes & Co,"1066 W Hastings St, Vancouver, BC V6E 3X1, Canada","{'location': {'lat': 49.2874929, 'lng': -123.1190337}, 'viewport': {'northeast': {'lat': 49.28892482989272, 'lng': -123.1175866701072}, 'southwest': {'lat': 49.28622517010728, 'lng': -123.1202863298927}}}",,49.2874929,-123.1190337
Chan Ruby Dr Inc,"1676 Martin Dr, Surrey, BC V4A 6E7, Canada","{'location': {'lat': 49.0323129, 'lng': -122.8050947}, 'viewport': {'northeast': {'lat': 49.03366302989273, 'lng': -122.8033890201073}, 'southwest': {'lat': 49.03096337010728, 'lng': -122.8060886798927}}}",,49.0323129,-122.8050947
Broadway Plaza Building,"601 W Broadway, Vancouver, BC V5Z 4C2, Canada","{'location': {'lat': 49.2635341, 'lng': -123.1181246}, 'viewport': {'northeast': {'lat': 49.26475462989273, 'lng': -123.1167839701073}, 'southwest': {'lat': 49.26205497010728, 'lng': -123.1194836298927}}}",,49.2635341,-123.1181246
West Broadway Properties Ltd,"2527 Pine St, Vancouver, BC V6J 3E8, Canada","{'location': {'lat': 49.2632333, 'lng': -123.1440552}, 'viewport': {'northeast': {'lat': 49.26481067989272, 'lng': -123.1427090701073}, 'southwest': {'lat': 49.26211102010727, 'lng': -123.1454087298927}}}",,49.2632333,-123.1440552
British Columbia Institute of Technology,"3700 Willingdon Ave, Burnaby, BC V5G 3H2, Canada","{'location': {'lat': 49.2506931, 'lng': -123.0017037}, 'viewport': {'northeast': {'lat': 49.25204177989272, 'lng': -123.0004345701072}, 'southwest': {'lat': 49.24934212010728, 'lng': -123.0031342298927}}}",,49.2506931,-123.0017037
Shon Group,"925 W Georgia St #820, Vancouver, BC V6C 3L2, Canada","{'location': {'lat': 49.2841842, 'lng': -123.1199611}, 'viewport': {'northeast': {'lat': 49.28539112989272, 'lng': -123.1185881701073}, 'southwest': {'lat': 49.28269147010728, 'lng': -123.1212878298928}}}",,49.2841842,-123.1199611
Sublime Interior Design Vancouver,"1880 Fir St #101, Vancouver, BC V6J 3B1, Canada","{'location': {'lat': 49.2691484, 'lng': -123.1406708}, 'viewport': {'northeast': {'lat': 49.27049967989272, 'lng': -123.1393906201072}, 'southwest': {'lat': 49.26780002010728, 'lng': -123.1420902798927}}}",,49.2691484,-123.1406708
Granville West Group,"1075 W Georgia St #1100, Vancouver, BC V6E 3C9, Canada","{'location': {'lat': 49.2856757, 'lng': -123.122372}, 'viewport': {'northeast': {'lat': 49.28691267989272, 'lng': -123.1211900201073}, 'southwest': {'lat': 49.28421302010727, 'lng': -123.1238896798927}}}",,49.2856757,-123.122372
Blue Tree Management Ltd,"1500 W Georgia St #1300, Vancouver, BC V6G 2Z6, Canada","{'location': {'lat': 49.2900321, 'lng': -123.1306911}, 'viewport': {'northeast': {'lat': 49.29153232989271, 'lng': -123.1291094701073}, 'southwest': {'lat': 49.28883267010727, 'lng': -123.1318091298927}}}",,49.2900321,-123.1306911
China Gold Intl,"Royal Trust Corporation of Canada, 505 Burrard St, Vancouver, BC V7X 1M5, Canada","{'location': {'lat': 49.28660259999999, 'lng': -123.1185528}, 'viewport': {'northeast': {'lat': 49.28780052989272, 'lng': -123.1170543701073}, 'southwest': {'lat': 49.28510087010728, 'lng': -123.1197540298927}}}",,49.28660259999999,-123.1185528
West Coast Cartage,"7489 Hume Ave, Delta, BC V4G 1C3, Canada","{'location': {'lat': 49.1313891, 'lng': -123.0159673}, 'viewport': {'northeast': {'lat': 49.13269397989272, 'lng': -123.0146175701073}, 'southwest': {'lat': 49.12999432010727, 'lng': -123.0173172298927}}}",,49.1313891,-123.0159673
Mike (Michael) R. Axford,"250 Howe St, Vancouver, BC V6B 1C8, Canada","{'location': {'lat': 49.2866905, 'lng': -123.1131766}, 'viewport': {'northeast': {'lat': 49.28803887989272, 'lng': -123.1121100701073}, 'southwest': {'lat': 49.28533922010727, 'lng': -123.1148097298927}}}",,49.2866905,-123.1131766
Kubix Media Inc.,"318 Homer St #701, Vancouver, BC V6B 2V2, Canada","{'location': {'lat': 49.28036789999999, 'lng': -123.1155477}, 'viewport': {'northeast': {'lat': 49.28173987989272, 'lng': -123.1142322201073}, 'southwest': {'lat': 49.27904022010728, 'lng': -123.1169318798927}}}",True,49.28036789999999,-123.1155477
Klohn Crippen Berger Ltd.,"2955 Virtual Way #500, Vancouver, BC V5M 4X6, Canada","{'location': {'lat': 49.2611526, 'lng': -123.0418482}, 'viewport': {'northeast': {'lat': 49.26241677989271, 'lng': -123.0404985701072}, 'southwest': {'lat': 49.25971712010727, 'lng': -123.0431982298927}}}",,49.2611526,-123.0418482
Lord Richard A,"52 Maine St, Brunswick, ME 04011, United States","{'location': {'lat': 43.91763479999999, 'lng': -69.9668173}, 'viewport': {'northeast': {'lat': 43.91900942989272, 'lng': -69.96531477010728}, 'southwest': {'lat': 43.91630977010728, 'lng': -69.96801442989272}}}",,43.91763479999999,-69.9668173
Praxis Legal,"3159 Cambie St, Vancouver, BC V5Z 4N2, Canada","{'location': {'lat': 49.2575666, 'lng': -123.1153777}, 'viewport': {'northeast': {'lat': 49.25897497989272, 'lng': -123.1139288201073}, 'southwest': {'lat': 49.25627532010728, 'lng': -123.1166284798927}}}",,49.2575666,-123.1153777
Praxis Legal,"3159 Cambie St, Vancouver, BC V5Z 4N2, Canada","{'location': {'lat': 49.2575666, 'lng': -123.1153777}, 'viewport': {'northeast': {'lat': 49.25897497989272, 'lng': -123.1139288201073}, 'southwest': {'lat': 49.25627532010728, 'lng': -123.1166284798927}}}",,49.2575666,-123.1153777
The Donald Cooper Corporation,"1 Palace Pier Ct #3406, Etobicoke, ON M8V 3W9, Canada","{'location': {'lat': 43.631471, 'lng': -79.47265}, 'viewport': {'northeast': {'lat': 43.63272187989272, 'lng': -79.47146137010728}, 'southwest': {'lat': 43.63002222010728, 'lng': -79.47416102989271}}}",,43.631471,-79.47265
Enotecca Winery & Resorts Inc,"957 E Hastings St, Vancouver, BC V6A 0H1, Canada","{'location': {'lat': 49.2812451, 'lng': -123.0835747}, 'viewport': {'northeast': {'lat': 49.28249772989272, 'lng': -123.0822305201073}, 'southwest': {'lat': 49.27979807010727, 'lng': -123.0849301798927}}}",,49.2812451,-123.0835747
Pacific Salmon Foundation,"1682 W 7th Ave, Vancouver, BC V6J 4S6, Canada","{'location': {'lat': 49.2652496, 'lng': -123.1427787}, 'viewport': {'northeast': {'lat': 49.26668732989273, 'lng': -123.1414256701073}, 'southwest': {'lat': 49.26398767010728, 'lng': -123.1441253298927}}}",,49.2652496,-123.1427787
Kelly Deck Design,"1636 W 2nd Ave, Vancouver, BC V6J 1H4, Canada","{'location': {'lat': 49.2696244, 'lng': -123.1416108}, 'viewport': {'northeast': {'lat': 49.27102352989272, 'lng': -123.1402591201072}, 'southwest': {'lat': 49.26832387010727, 'lng': -123.1429587798927}}}",,49.2696244,-123.1416108
Japan Oil Gas & Metals Natl,"400 Burrard St, Vancouver, BC V6C 3A6, Canada","{'location': {'lat': 49.2866059, 'lng': -123.1170683}, 'viewport': {'northeast': {'lat': 49.28807057989272, 'lng': -123.1159033201073}, 'southwest': {'lat': 49.28537092010728, 'lng': -123.1186029798927}}}",True,49.2866059,-123.1170683
The University of British Columbia,"Vancouver, BC V6T 1Z4, Canada","{'location': {'lat': 49.26060520000001, 'lng': -123.2459938}, 'viewport': {'northeast': {'lat': 49.28261634999999, 'lng': -123.21947235}, 'southwest': {'lat': 49.23265135, 'lng': -123.26827175}}}",,49.26060520000001,-123.2459938
Automated Filing Svc Inc,"885 Dunsmuir St, Vancouver, BC V6C 1N5, Canada","{'location': {'lat': 49.2848429, 'lng': -123.1179511}, 'viewport': {'northeast': {'lat': 49.28613522989272, 'lng': -123.1166845701073}, 'southwest': {'lat': 49.28343557010728, 'lng': -123.1193842298927}}}",,49.2848429,-123.1179511
Galore Creek Mining Corporation,"3851 Broadway Ave, Smithers, BC V0J 2N3, Canada","{'location': {'lat': 54.779718, 'lng': -127.1743099}, 'viewport': {'northeast': {'lat': 54.78109787989272, 'lng': -127.1728913201073}, 'southwest': {'lat': 54.77839822010728, 'lng': -127.1755909798927}}}",,54.779718,-127.1743099
Studio One Architecture Inc,"388 W 8th Ave, Vancouver, BC V5Y 3X2, Canada","{'location': {'lat': 49.2635955, 'lng': -123.1127335}, 'viewport': {'northeast': {'lat': 49.26494297989272, 'lng': -123.1114772201073}, 'southwest': {'lat': 49.26224332010727, 'lng': -123.1141768798927}}}",,49.2635955,-123.1127335
DLA Piper (Canada) LLP,"666 Burrard St, Vancouver, BC V6C 2Z7, Canada","{'location': {'lat': 49.2850659, 'lng': -123.1191307}, 'viewport': {'northeast': {'lat': 49.28634612989273, 'lng': -123.1175114701073}, 'southwest': {'lat': 49.28364647010728, 'lng': -123.1202111298927}}}",,49.2850659,-123.1191307
Continuing Legal Education Society of BC (CLEBC),"1155 W Pender St #500, Vancouver, BC V6E 2P4, Canada","{'location': {'lat': 49.2882162, 'lng': -123.1217467}, 'viewport': {'northeast': {'lat': 49.28944032989272, 'lng': -123.1204832701073}, 'southwest': {'lat': 49.28674067010728, 'lng': -123.1231829298927}}}",,49.2882162,-123.1217467
Arnon A. Dachner,"250 Howe St, Vancouver, BC V6C 3R8, Canada","{'location': {'lat': 49.2866841, 'lng': -123.1131576}, 'viewport': {'northeast': {'lat': 49.28803887989272, 'lng': -123.1121005701073}, 'southwest': {'lat': 49.28533922010727, 'lng': -123.1148002298927}}}",,49.2866841,-123.1131576
Midgard Consulting Inc.,"828-1130 W Pender St, Vancouver, BC V6E 4A4, Canada","{'location': {'lat': 49.2874879, 'lng': -123.1215984}, 'viewport': {'northeast': {'lat': 49.28893812989273, 'lng': -123.1200432201072}, 'southwest': {'lat': 49.28623847010729, 'lng': -123.1227428798927}}}",,49.2874879,-123.1215984
Mussio Goodman,"1188 W Georgia St #2050, Vancouver, BC V6E 4A2, Canada","{'location': {'lat': 49.28672, 'lng': -123.125265}, 'viewport': {'northeast': {'lat': 49.28816757989272, 'lng': -123.1237651701073}, 'southwest': {'lat': 49.28546792010728, 'lng': -123.1264648298927}}}",,49.28672,-123.125265
Hammerco Lawyers LLP,"Suite 1220 Airport Square, 1200 W 73rd Ave, Vancouver, BC V6P 6G5, Canada","{'location': {'lat': 49.2041247, 'lng': -123.1332583}, 'viewport': {'northeast': {'lat': 49.20556122989272, 'lng': -123.1319105201073}, 'southwest': {'lat': 49.20286157010727, 'lng': -123.1346101798927}}}",,49.2041247,-123.1332583
RBC Royal Bank,"5905 Berton Ave, Vancouver, BC V6S 0B3, Canada","{'location': {'lat': 49.2550543, 'lng': -123.236065}, 'viewport': {'northeast': {'lat': 49.25634032989272, 'lng': -123.2346304701073}, 'southwest': {'lat': 49.25364067010727, 'lng': -123.2373301298927}}}",,49.2550543,-123.236065
Saliance Global Holdings,"1720-505 Burrard St, Vancouver, BC V7X 1M6, Canada","{'location': {'lat': 49.2865917, 'lng': -123.1185578}, 'viewport': {'northeast': {'lat': 49.28779507989272, 'lng': -123.1170568701073}, 'southwest': {'lat': 49.28509542010728, 'lng': -123.1197565298927}}}",,49.2865917,-123.1185578
MERIT,"700 W Pender St #301, Vancouver, BC V6C 2T8, Canada","{'location': {'lat': 49.2847807, 'lng': -123.1168989}, 'viewport': {'northeast': {'lat': 49.28608857989272, 'lng': -123.1154825201072}, 'southwest': {'lat': 49.28338892010728, 'lng': -123.1181821798927}}}",,49.2847807,-123.1168989
Harris & Company LLP,"550 Burrard St 14th Floor, Vancouver, BC V6C 2B5, Canada","{'location': {'lat': 49.2857446, 'lng': -123.1182499}, 'viewport': {'northeast': {'lat': 49.28720617989272, 'lng': -123.1171537701073}, 'southwest': {'lat': 49.28450652010728, 'lng': -123.1198534298927}}}",,49.2857446,-123.1182499
Arazy Group Consultants Inc.,"1333 Johnston St #200, Vancouver, BC V6H 3R9, Canada","{'location': {'lat': 49.270739, 'lng': -123.132049}, 'viewport': {'northeast': {'lat': 49.27198417989272, 'lng': -123.1306031701072}, 'southwest': {'lat': 49.26928452010728, 'lng': -123.1333028298927}}}",,49.270739,-123.132049
Azincourt Resources Inc,"789 W Pender St, Vancouver, BC V6C 1H2, Canada","{'location': {'lat': 49.2853192, 'lng': -123.1154022}, 'viewport': {'northeast': {'lat': 49.28659197989272, 'lng': -123.1141669701072}, 'southwest': {'lat': 49.28389232010728, 'lng': -123.1168666298927}}}",,49.2853192,-123.1154022
McConchie Law Corporation,"889 Harbourside Dr #290, North Vancouver, BC V7P 3S1, Canada","{'location': {'lat': 49.3137876, 'lng': -123.0976617}, 'viewport': {'northeast': {'lat': 49.31525667989272, 'lng': -123.0963086701073}, 'southwest': {'lat': 49.31255702010728, 'lng': -123.0990083298927}}}",,49.3137876,-123.0976617
Bijan Law Corporation,"701 W Georgia St #1801, Vancouver, BC V7Y 1C6, Canada","{'location': {'lat': 49.2833332, 'lng': -123.117736}, 'viewport': {'northeast': {'lat': 49.28445062989272, 'lng': -123.1163060201073}, 'southwest': {'lat': 49.28175097010728, 'lng': -123.1190056798927}}}",,49.2833332,-123.117736
barbara findlay QC,"1033 Davie St #635, Vancouver, BC V6E 1M7, Canada","{'location': {'lat': 49.2798311, 'lng': -123.1298666}, 'viewport': {'northeast': {'lat': 49.28102317989271, 'lng': -123.1284569201072}, 'southwest': {'lat': 49.27832352010727, 'lng': -123.1311565798927}}}",,49.2798311,-123.1298666
Dosanjh Law Group Trial Lawyers,"200-1462 W 8th Ave, Vancouver, BC V6H 1E1, Canada","{'location': {'lat': 49.2642652, 'lng': -123.1375339}, 'viewport': {'northeast': {'lat': 49.26572747989272, 'lng': -123.1361882201072}, 'southwest': {'lat': 49.26302782010728, 'lng': -123.1388878798927}}}",,49.2642652,-123.1375339
Pacific Newspaper Group,"200 Granville St, Vancouver, BC V6C 1S4, Canada","{'location': {'lat': 49.2868121, 'lng': -123.1123894}, 'viewport': {'northeast': {'lat': 49.28835652989272, 'lng': -123.1111263201073}, 'southwest': {'lat': 49.28565687010727, 'lng': -123.1138259798928}}}",,49.2868121,-123.1123894
Austeville Properties Ltd.,"1645 W 7th Ave, Vancouver, BC V6J 1S4, Canada","{'location': {'lat': 49.265573, 'lng': -123.1420327}, 'viewport': {'northeast': {'lat': 49.26684332989272, 'lng': -123.1406857701073}, 'southwest': {'lat': 49.26414367010728, 'lng': -123.1433854298927}}}",,49.265573,-123.1420327
Brygid Technologies Corporation,"938 Howe St #811, Vancouver, BC V6Z 1N9, Canada","{'location': {'lat': 49.280385, 'lng': -123.1228799}, 'viewport': {'northeast': {'lat': 49.28180342989273, 'lng': -123.1216351701073}, 'southwest': {'lat': 49.27910377010728, 'lng': -123.1243348298927}}}",,49.280385,-123.1228799
DLA Piper (Canada) LLP,"666 Burrard St, Vancouver, BC V6C 2Z7, Canada","{'location': {'lat': 49.2850659, 'lng': -123.1191307}, 'viewport': {'northeast': {'lat': 49.28634612989273, 'lng': -123.1175114701073}, 'southwest': {'lat': 49.28364647010728, 'lng': -123.1202111298927}}}",,49.2850659,-123.1191307
Communica,"355 Burrard St #408, Vancouver, BC V6C 2G8, Canada","{'location': {'lat': 49.287648, 'lng': -123.1173085}, 'viewport': {'northeast': {'lat': 49.28882237989272, 'lng': -123.1156863701073}, 'southwest': {'lat': 49.28612272010728, 'lng': -123.1183860298927}}}",,49.287648,-123.1173085
Augurex Life Science Corp,"887 Great Northern Way #220, Vancouver, BC V5T 4T5, Canada","{'location': {'lat': 49.2664334, 'lng': -123.0845203}, 'viewport': {'northeast': {'lat': 49.26763532989272, 'lng': -123.0833689701073}, 'southwest': {'lat': 49.26493567010727, 'lng': -123.0860686298928}}}",,49.2664334,-123.0845203
Micro Com Systems Ltd,"4634 E Marginal Way S, Seattle, WA 98134, United States","{'location': {'lat': 47.5615426, 'lng': -122.3389019}, 'viewport': {'northeast': {'lat': 47.56281402989272, 'lng': -122.3375472201073}, 'southwest': {'lat': 47.56011437010727, 'lng': -122.3402468798927}}}",,47.5615426,-122.3389019
Tasktop Technologies,"1500 W Georgia St, Vancouver, BC V6G 2Z6, Canada","{'location': {'lat': 49.2901474, 'lng': -123.1306222}, 'viewport': {'northeast': {'lat': 49.29161082989272, 'lng': -123.1291072701073}, 'southwest': {'lat': 49.28891117010728, 'lng': -123.1318069298927}}}",,49.2901474,-123.1306222
D G Services,"7 St George's Rd, Cullercoats, North Shields NE30 3JX, United Kingdom","{'location': {'lat': 55.0340308, 'lng': -1.436786}, 'viewport': {'northeast': {'lat': 55.03540242989272, 'lng': -1.435342120107278}, 'southwest': {'lat': 55.03270277010728, 'lng': -1.438041779892722}}}",,55.0340308,-1.436786
DLA Piper (Canada) LLP,"666 Burrard St, Vancouver, BC V6C 2Z7, Canada","{'location': {'lat': 49.2850659, 'lng': -123.1191307}, 'viewport': {'northeast': {'lat': 49.28634612989273, 'lng': -123.1175114701073}, 'southwest': {'lat': 49.28364647010728, 'lng': -123.1202111298927}}}",,49.2850659,-123.1191307
Pacific Newspaper Group,"200 Granville St, Vancouver, BC V6C 1S4, Canada","{'location': {'lat': 49.2868121, 'lng': -123.1123894}, 'viewport': {'northeast': {'lat': 49.28835652989272, 'lng': -123.1111263201073}, 'southwest': {'lat': 49.28565687010727, 'lng': -123.1138259798928}}}",,49.2868121,-123.1123894
Sureway Insurance Services LTD,"4580 Victoria Dr, Vancouver, BC V5N 4N8, Canada","{'location': {'lat': 49.24421479999999, 'lng': -123.0650181}, 'viewport': {'northeast': {'lat': 49.24556392989272, 'lng': -123.0637265701072}, 'southwest': {'lat': 49.24286427010728, 'lng': -123.0664262298927}}}",,49.24421479999999,-123.0650181
S.U.C.C.E.S.S Chinatown Service Centre  Head Office,"28 W Pender St, Vancouver, BC V6B 1R6, Canada","{'location': {'lat': 49.2804925, 'lng': -123.1051483}, 'viewport': {'northeast': {'lat': 49.28191222989273, 'lng': -123.1037649701073}, 'southwest': {'lat': 49.27921257010728, 'lng': -123.1064646298927}}}",,49.2804925,-123.1051483
Leaders International Executive Search (formerly Davies Park Executive Search),"609 Granville St #880, Vancouver, BC V7Y 1G5, Canada","{'location': {'lat': 49.2836048, 'lng': -123.1167492}, 'viewport': {'northeast': {'lat': 49.28483552989272, 'lng': -123.1154999201073}, 'southwest': {'lat': 49.28213587010728, 'lng': -123.1181995798927}}}",,49.2836048,-123.1167492
Manulife Real Estate,"1095 W Pender St, Vancouver, BC V6E 2M6, Canada","{'location': {'lat': 49.2876082, 'lng': -123.1196883}, 'viewport': {'northeast': {'lat': 49.28887957989272, 'lng': -123.1185720701073}, 'southwest': {'lat': 49.28617992010728, 'lng': -123.1212717298927}}}",,49.2876082,-123.1196883
Seair Seaplanes,"1956 Zorkin Rd, Nanaimo, BC V9S 5T9, Canada","{'location': {'lat': 49.1908058, 'lng': -123.9492552}, 'viewport': {'northeast': {'lat': 49.19215812989272, 'lng': -123.9479086201073}, 'southwest': {'lat': 49.18945847010728, 'lng': -123.9506082798927}}}",,49.1908058,-123.9492552
"GY Global Holding (PVT) LTD,","Aloe Ave, Colombo, Sri Lanka","{'location': {'lat': 6.905244199999999, 'lng': 79.8507204}, 'viewport': {'northeast': {'lat': 6.906623879892722, 'lng': 79.85206012989272}, 'southwest': {'lat': 6.903924220107278, 'lng': 79.84936047010727}}}",,6.905244199999999,79.8507204
Sinotrans Canada Inc,"555 W Hastings St, Vancouver, BC V6B 1M1, Canada","{'location': {'lat': 49.28686140000001, 'lng': -123.1162672}, 'viewport': {'northeast': {'lat': 49.28822492989272, 'lng': -123.1148980701072}, 'southwest': {'lat': 49.28552527010728, 'lng': -123.1175977298927}}}",True,49.28686140000001,-123.1162672
ADB Structural Engineering Inc.,"670 Evans Ave, Vancouver, BC V6A 2K9, Canada","{'location': {'lat': 49.271837, 'lng': -123.0896964}, 'viewport': {'northeast': {'lat': 49.27335602989272, 'lng': -123.0882775701073}, 'southwest': {'lat': 49.27065637010728, 'lng': -123.0909772298927}}}",,49.271837,-123.0896964
Farris LLP,"700 W Georgia St #2500, Vancouver, BC V7Y 1B3, Canada","{'location': {'lat': 49.2827198, 'lng': -123.1187987}, 'viewport': {'northeast': {'lat': 49.28415717989272, 'lng': -123.1174674701073}, 'southwest': {'lat': 49.28145752010727, 'lng': -123.1201671298927}}}",,49.2827198,-123.1187987
Paine Edmonds LLP,"510 Burrard St #1100, Vancouver, BC V6C 3A8, Canada","{'location': {'lat': 49.28596599999999, 'lng': -123.1175769}, 'viewport': {'northeast': {'lat': 49.28723422989272, 'lng': -123.1159422701072}, 'southwest': {'lat': 49.28453457010728, 'lng': -123.1186419298927}}}",,49.28596599999999,-123.1175769
John Henshaw Architect Inc. (JHA Inc.),"1666 W 75th Ave, Vancouver, BC V6P 6G2, Canada","{'location': {'lat': 49.2058973, 'lng': -123.1463369}, 'viewport': {'northeast': {'lat': 49.20730117989272, 'lng': -123.1449258701073}, 'southwest': {'lat': 49.20460152010727, 'lng': -123.1476255298927}}}",,49.2058973,-123.1463369
RKO Content Management Solutions,"55 Water St, Vancouver, BC V6B 1A1, Canada","{'location': {'lat': 49.28395920000001, 'lng': -123.1054599}, 'viewport': {'northeast': {'lat': 49.28518622989272, 'lng': -123.1041736201073}, 'southwest': {'lat': 49.28248657010728, 'lng': -123.1068732798927}}}",,49.28395920000001,-123.1054599
A G F Management Ltd,"PO Box 49001 Stn Bentall Centr, Vancouver, BC V7X 1B1, Canada","{'location': {'lat': 49.2860035, 'lng': -123.1193761}, 'viewport': {'northeast': {'lat': 49.28724367989272, 'lng': -123.1178557201073}, 'southwest': {'lat': 49.28454402010728, 'lng': -123.1205553798927}}}",,49.2860035,-123.1193761
Harper Grey LLP,"650 W Georgia St #3200, Vancouver, BC V6B 4P7, Canada","{'location': {'lat': 49.281797, 'lng': -123.1174647}, 'viewport': {'northeast': {'lat': 49.28300892989272, 'lng': -123.1163189201073}, 'southwest': {'lat': 49.28030927010728, 'lng': -123.1190185798927}}}",,49.281797,-123.1174647
Masri Wafaa,"3147 Kingsway, Vancouver, BC V5R 5K2, Canada","{'location': {'lat': 49.2355843, 'lng': -123.0383766}, 'viewport': {'northeast': {'lat': 49.23683272989273, 'lng': -123.0371188201073}, 'southwest': {'lat': 49.23413307010728, 'lng': -123.0398184798927}}}",,49.2355843,-123.0383766
The Re-Development Group Inc,"1017 E Michigan St, Indianapolis, IN 46202, United States","{'location': {'lat': 39.77327469999999, 'lng': -86.1398544}, 'viewport': {'northeast': {'lat': 39.77462677989271, 'lng': -86.13822717010729}, 'southwest': {'lat': 39.77192712010727, 'lng': -86.14092682989272}}}",,39.77327469999999,-86.1398544
Davidson & Sons Customs Brokers Ltd,"1188 W Georgia St, Vancouver, BC V6E 4A2, Canada","{'location': {'lat': 49.2867195, 'lng': -123.1252647}, 'viewport': {'northeast': {'lat': 49.28820112989271, 'lng': -123.1238286201073}, 'southwest': {'lat': 49.28550147010727, 'lng': -123.1265282798927}}}",,49.2867195,-123.1252647
Mac Millan Estate Planning,"1701 W Broadway, Vancouver, BC V6J 1Y3, Canada","{'location': {'lat': 49.2638372, 'lng': -123.1436626}, 'viewport': {'northeast': {'lat': 49.26510882989272, 'lng': -123.1423164201072}, 'southwest': {'lat': 49.26240917010727, 'lng': -123.1450160798927}}}",,49.2638372,-123.1436626
INTERNeX International Exchange,"International Village Mall, 88 W Pender St #2077, Vancouver, BC V6B 6N9, Canada","{'location': {'lat': 49.2803057, 'lng': -123.1065388}, 'viewport': {'northeast': {'lat': 49.28189287989272, 'lng': -123.1049522201073}, 'southwest': {'lat': 49.27919322010728, 'lng': -123.1076518798927}}}",,49.2803057,-123.1065388
Manex Resource Group,"Vancouver, BC V6C 0A5, Canada","{'location': {'lat': 49.2888862, 'lng': -123.122356}, 'viewport': {'northeast': {'lat': 49.29028112989272, 'lng': -123.1210756201072}, 'southwest': {'lat': 49.28758147010728, 'lng': -123.1237752798927}}}",,49.2888862,-123.122356
Manila Cargo Express,"3181 Main St, Vancouver, BC V5T 3G7, Canada","{'location': {'lat': 49.2568735, 'lng': -123.1014683}, 'viewport': {'northeast': {'lat': 49.25827832989272, 'lng': -123.0999929701073}, 'southwest': {'lat': 49.25557867010727, 'lng': -123.1026926298927}}}",,49.2568735,-123.1014683
Leung Wing Ting,"973 W Broadway, Vancouver, BC V5Z 1K3, Canada","{'location': {'lat': 49.26355419999999, 'lng': -123.1251575}, 'viewport': {'northeast': {'lat': 49.26485422989271, 'lng': -123.1238081701073}, 'southwest': {'lat': 49.26215457010727, 'lng': -123.1265078298927}}}",,49.26355419999999,-123.1251575
Lesperance Mendes Lawyers,"900 Howe St #550, Vancouver, BC V6Z 2M4, Canada","{'location': {'lat': 49.280689, 'lng': -123.122379}, 'viewport': {'northeast': {'lat': 49.28211557989272, 'lng': -123.1211415701073}, 'southwest': {'lat': 49.27941592010728, 'lng': -123.1238412298927}}}",,49.280689,-123.122379
Stephens & Holman,"999 W Broadway #720, Vancouver, BC V5Z 1K3, Canada","{'location': {'lat': 49.2636513, 'lng': -123.1261616}, 'viewport': {'northeast': {'lat': 49.26490777989272, 'lng': -123.1248856701072}, 'southwest': {'lat': 49.26220812010727, 'lng': -123.1275853298927}}}",,49.2636513,-123.1261616
RGP Law Group,"1250 Homer St, Vancouver, BC V6B 1C6, Canada","{'location': {'lat': 49.2746467, 'lng': -123.123904}, 'viewport': {'northeast': {'lat': 49.27604617989272, 'lng': -123.1226291701072}, 'southwest': {'lat': 49.27334652010727, 'lng': -123.1253288298927}}}",,49.2746467,-123.123904
Andrew Schroeder,"808 Nelson St #407, Vancouver, BC V6Z 2H2, Canada","{'location': {'lat': 49.2798452, 'lng': -123.1246517}, 'viewport': {'northeast': {'lat': 49.28131367989273, 'lng': -123.1231238701072}, 'southwest': {'lat': 49.27861402010728, 'lng': -123.1258235298927}}}",,49.2798452,-123.1246517
W3 Design Group Inc,"320 - 319 W Pender St, Vancouver, BC V6B 1T3, Canada","{'location': {'lat': 49.282385, 'lng': -123.1113604}, 'viewport': {'northeast': {'lat': 49.28372107989272, 'lng': -123.1100315201072}, 'southwest': {'lat': 49.28102142010728, 'lng': -123.1127311798927}}}",,49.282385,-123.1113604
Dives Harper & Stanger,"815 Hornby St #600, Vancouver, BC V6Z 2E6, Canada","{'location': {'lat': 49.2825426, 'lng': -123.12246}, 'viewport': {'northeast': {'lat': 49.28380877989272, 'lng': -123.1209813701072}, 'southwest': {'lat': 49.28110912010727, 'lng': -123.1236810298927}}}",,49.2825426,-123.12246
John F Anderson,"666 Burrard St, Vancouver, BC V6C 2X8, Canada","{'location': {'lat': 49.2850146, 'lng': -123.1190609}, 'viewport': {'northeast': {'lat': 49.28632942989272, 'lng': -123.1174765701073}, 'southwest': {'lat': 49.28362977010728, 'lng': -123.1201762298927}}}",,49.2850146,-123.1190609
Aarm Dental Group Corporate Head Office,"913 Davie St, Vancouver, BC V6Z 1B9, Canada","{'location': {'lat': 49.2786512, 'lng': -123.1284852}, 'viewport': {'northeast': {'lat': 49.28001617989272, 'lng': -123.1271134201073}, 'southwest': {'lat': 49.27731652010728, 'lng': -123.1298130798927}}}",,49.2786512,-123.1284852
Equity Exploration Consultants Ltd,"200 Granville St #1238, Vancouver, BC V6C 1S4, Canada","{'location': {'lat': 49.2868259, 'lng': -123.112583}, 'viewport': {'northeast': {'lat': 49.28836342989273, 'lng': -123.1111507701073}, 'southwest': {'lat': 49.28566377010728, 'lng': -123.1138504298927}}}",,49.2868259,-123.112583
Bosa Properties Inc,"838 W Hastings St, Vancouver, BC V6C 2X1, Canada","{'location': {'lat': 49.2861452, 'lng': -123.1154436}, 'viewport': {'northeast': {'lat': 49.28754107989273, 'lng': -123.1140252201073}, 'southwest': {'lat': 49.28484142010728, 'lng': -123.1167248798927}}}",,49.2861452,-123.1154436
Georgialee Lang Law,"808 Nelson St #1201, Vancouver, BC V6Z 2H1, Canada","{'location': {'lat': 49.2798451, 'lng': -123.1246517}, 'viewport': {'northeast': {'lat': 49.28131357989272, 'lng': -123.1231238201073}, 'southwest': {'lat': 49.27861392010728, 'lng': -123.1258234798927}}}",,49.2798451,-123.1246517
Boomerang Consulting,"1055 W Hastings St, Vancouver, BC V6E 2E9, Canada","{'location': {'lat': 49.2877498, 'lng': -123.1182265}, 'viewport': {'northeast': {'lat': 49.28898672989273, 'lng': -123.1169556201072}, 'southwest': {'lat': 49.28628707010729, 'lng': -123.1196552798927}}}",,49.2877498,-123.1182265
The University of British Columbia,"Vancouver, BC V6T 1Z4, Canada","{'location': {'lat': 49.26060520000001, 'lng': -123.2459938}, 'viewport': {'northeast': {'lat': 49.28261634999999, 'lng': -123.21947235}, 'southwest': {'lat': 49.23265135, 'lng': -123.26827175}}}",,49.26060520000001,-123.2459938
Harris & Company LLP,"550 Burrard St 14th Floor, Vancouver, BC V6C 2B5, Canada","{'location': {'lat': 49.2857446, 'lng': -123.1182499}, 'viewport': {'northeast': {'lat': 49.28720617989272, 'lng': -123.1171537701073}, 'southwest': {'lat': 49.28450652010728, 'lng': -123.1198534298927}}}",,49.2857446,-123.1182499
Wendy Fuller Notary Public,"1333 Homer St, Vancouver, BC V6B 5M9, Canada","{'location': {'lat': 49.2737562, 'lng': -123.1257946}, 'viewport': {'northeast': {'lat': 49.27506707989273, 'lng': -123.1243494201073}, 'southwest': {'lat': 49.27236742010729, 'lng': -123.1270490798927}}}",,49.2737562,-123.1257946
Georgia Pacific Realty Corporation: Jen F. Kuo,"601 W Broadway #400, Vancouver, BC V5Z 4C2, Canada","{'location': {'lat': 49.2637363, 'lng': -123.1180044}, 'viewport': {'northeast': {'lat': 49.26485572989272, 'lng': -123.1167238701072}, 'southwest': {'lat': 49.26215607010728, 'lng': -123.1194235298927}}}",,49.2637363,-123.1180044
Boralex Inc.,"900 Boulevard de Maisonneuve O 24eme tage, Montral, QC H3A 1M5, Canada","{'location': {'lat': 45.5019469, 'lng': -73.5733886}, 'viewport': {'northeast': {'lat': 45.50334387989272, 'lng': -73.57213832010727}, 'southwest': {'lat': 45.50064422010728, 'lng': -73.5748379798927}}}",,45.5019469,-73.5733886
Whitelaw Twining Law Corporation,"200 Granville St #2400, Vancouver, BC V6C 1S4, Canada","{'location': {'lat': 49.286863, 'lng': -123.1122368}, 'viewport': {'northeast': {'lat': 49.28838197989272, 'lng': -123.1110500201073}, 'southwest': {'lat': 49.28568232010728, 'lng': -123.1137496798927}}}",,49.286863,-123.1122368
DuMoulin Black LLP,"595 Howe St 10th floor, Vancouver, BC V6C 2T5, Canada","{'location': {'lat': 49.284532, 'lng': -123.117506}, 'viewport': {'northeast': {'lat': 49.28580197989272, 'lng': -123.1161752701073}, 'southwest': {'lat': 49.28310232010728, 'lng': -123.1188749298927}}}",,49.284532,-123.117506
Owen Bird Law Corporation,"595 Burrard St, Vancouver, BC V7X 1J5, Canada","{'location': {'lat': 49.28621889999999, 'lng': -123.1197804}, 'viewport': {'northeast': {'lat': 49.28734007989272, 'lng': -123.1180749701073}, 'southwest': {'lat': 49.28464042010727, 'lng': -123.1207746298927}}}",,49.28621889999999,-123.1197804
Kornfeld LLP,"505 Burrard St #1100, Vancouver, BC V7X 1M5, Canada","{'location': {'lat': 49.28661899999999, 'lng': -123.118501}, 'viewport': {'northeast': {'lat': 49.28803487989272, 'lng': -123.1169209201073}, 'southwest': {'lat': 49.28533522010727, 'lng': -123.1196205798928}}}",,49.28661899999999,-123.118501
Gowling WLG,"550 Burrard St #2300, Vancouver, BC V6C 2B5, Canada","{'location': {'lat': 49.285805, 'lng': -123.1182359}, 'viewport': {'northeast': {'lat': 49.28723637989272, 'lng': -123.1171467701073}, 'southwest': {'lat': 49.28453672010728, 'lng': -123.1198464298927}}}",,49.285805,-123.1182359
Marilena Imports,"Vancouver, BC V5K 4Z7, Canada","{'location': {'lat': 49.2814615, 'lng': -123.0244938}, 'viewport': {'northeast': {'lat': 49.28264982989273, 'lng': -123.0229322201073}, 'southwest': {'lat': 49.27995017010728, 'lng': -123.0256318798927}}}",,49.2814615,-123.0244938
Stikeman Elliott,"666 Burrard St #1700, Vancouver, BC V6C 2X8, Canada","{'location': {'lat': 49.2850659, 'lng': -123.1191307}, 'viewport': {'northeast': {'lat': 49.28634612989273, 'lng': -123.1175114701073}, 'southwest': {'lat': 49.28364647010728, 'lng': -123.1202111298927}}}",,49.2850659,-123.1191307
Stephens & Holman,"999 W Broadway #720, Vancouver, BC V5Z 1K3, Canada","{'location': {'lat': 49.2636513, 'lng': -123.1261616}, 'viewport': {'northeast': {'lat': 49.26490777989272, 'lng': -123.1248856701072}, 'southwest': {'lat': 49.26220812010727, 'lng': -123.1275853298927}}}",,49.2636513,-123.1261616
Stephens & Holman,"1200 West 73rd Avenue Suite 500, Airport Square, Vancouver, BC V6P 6Z6, Canada","{'location': {'lat': 49.2041247, 'lng': -123.1332583}, 'viewport': {'northeast': {'lat': 49.20556122989272, 'lng': -123.1319108701073}, 'southwest': {'lat': 49.20286157010727, 'lng': -123.1346105298927}}}",,49.2041247,-123.1332583
Marine Building,"355 Burrard St, Vancouver, BC V6C 2G8, Canada","{'location': {'lat': 49.2874624, 'lng': -123.1170457}, 'viewport': {'northeast': {'lat': 49.28872722989271, 'lng': -123.1155585201073}, 'southwest': {'lat': 49.28602757010727, 'lng': -123.1182581798927}}}",,49.2874624,-123.1170457
Marin Investments Ltd,"700 W Georgia St #3010, Vancouver, BC V7Y 1B6, Canada","{'location': {'lat': 49.2827092, 'lng': -123.1188238}, 'viewport': {'northeast': {'lat': 49.28415187989273, 'lng': -123.1174674701073}, 'southwest': {'lat': 49.28145222010728, 'lng': -123.1201671298927}}}",,49.2827092,-123.1188238
M & P Mercury Sales Ltd,"7340 6th St, Burnaby, BC V3N 3L3, Canada","{'location': {'lat': 49.2259183, 'lng': -122.9360552}, 'viewport': {'northeast': {'lat': 49.22715967989272, 'lng': -122.9347080701073}, 'southwest': {'lat': 49.22446002010727, 'lng': -122.9374077298927}}}",,49.2259183,-122.9360552
Gems Grading & Appraising Inc,"Vancouver Block bldg., 736 Granville St #222, Vancouver, BC V6Z 1G3, Canada","{'location': {'lat': 49.28187699999999, 'lng': -123.1186}, 'viewport': {'northeast': {'lat': 49.28330247989272, 'lng': -123.1173672201073}, 'southwest': {'lat': 49.28060282010728, 'lng': -123.1200668798927}}}",,49.28187699999999,-123.1186
Gordon Trent Golf Course,"2160 Golf Course Rd, Stuart, VA 24171, United States","{'location': {'lat': 36.5911732, 'lng': -80.1008396}, 'viewport': {'northeast': {'lat': 36.59253612989272, 'lng': -80.09949567010727}, 'southwest': {'lat': 36.58983647010727, 'lng': -80.10219532989271}}}",,36.5911732,-80.1008396
A & A Trading Ltd,"1111 Melville St, Vancouver, BC V6E 3V6, Canada","{'location': {'lat': 49.2868232, 'lng': -123.1221176}, 'viewport': {'northeast': {'lat': 49.28814957989272, 'lng': -123.1209510701073}, 'southwest': {'lat': 49.28544992010728, 'lng': -123.1236507298927}}}",,49.2868232,-123.1221176
Browns Socialhouse Point Grey,"3651 W 10th Ave, Vancouver, BC V6R 2G2, Canada","{'location': {'lat': 49.2636445, 'lng': -123.1852562}, 'viewport': {'northeast': {'lat': 49.26491067989271, 'lng': -123.1839636701073}, 'southwest': {'lat': 49.26221102010727, 'lng': -123.1866633298927}}}",,49.2636445,-123.1852562
Mitchell Law Corporation,"11845 W Olympic Blvd #725W, Los Angeles, CA 90064, United States","{'location': {'lat': 34.0334358, 'lng': -118.4521865}, 'viewport': {'northeast': {'lat': 34.03500557989272, 'lng': -118.4506951701073}, 'southwest': {'lat': 34.03230592010728, 'lng': -118.4533948298927}}}",,34.0334358,-118.4521865
Mitchell Law Corporation,"404 Camino del Rio S Suite 603, San Diego, CA 92108, United States","{'location': {'lat': 32.76133, 'lng': -117.16212}, 'viewport': {'northeast': {'lat': 32.76259922989273, 'lng': -117.1606235201073}, 'southwest': {'lat': 32.75989957010728, 'lng': -117.1633231798927}}}",,32.76133,-117.16212
Aben Resources Ltd.,"777 Dunsmuir St Suite 1610, Vancouver, BC V7Y 1K4, Canada","{'location': {'lat': 49.2840544, 'lng': -123.1168741}, 'viewport': {'northeast': {'lat': 49.28554487989273, 'lng': -123.1157377201073}, 'southwest': {'lat': 49.28284522010728, 'lng': -123.1184373798927}}}",,49.2840544,-123.1168741
John Chao,"5455 West Blvd, Vancouver, BC V6M 3W5, Canada","{'location': {'lat': 49.2367767, 'lng': -123.1556922}, 'viewport': {'northeast': {'lat': 49.23812537989272, 'lng': -123.1542574201073}, 'southwest': {'lat': 49.23542572010728, 'lng': -123.1569570798927}}}",,49.2367767,-123.1556922
J S Cummings & Assoc,"5704 Balsam St, Vancouver, BC V6M 4B9, Canada","{'location': {'lat': 49.2343999, 'lng': -123.1612252}, 'viewport': {'northeast': {'lat': 49.23564122989273, 'lng': -123.1598798701072}, 'southwest': {'lat': 49.23294157010728, 'lng': -123.1625795298927}}}",,49.2343999,-123.1612252
Geotex Consultants Ltd,"470 Granville St, Vancouver, BC V6C 1V5, Canada","{'location': {'lat': 49.2844424, 'lng': -123.114021}, 'viewport': {'northeast': {'lat': 49.28598657989272, 'lng': -123.1129631701072}, 'southwest': {'lat': 49.28328692010728, 'lng': -123.1156628298927}}}",True,49.2844424,-123.114021
Taseko Mines Ltd.,"1040 W Georgia St, Vancouver, BC V6E 4H1, Canada","{'location': {'lat': 49.2849807, 'lng': -123.1225996}, 'viewport': {'northeast': {'lat': 49.28623642989272, 'lng': -123.1214241201073}, 'southwest': {'lat': 49.28353677010728, 'lng': -123.1241237798927}}}",,49.2849807,-123.1225996
Hanyin Education Consulting Inc,"970 Burrard St #230, Vancouver, BC V6Z 2R4, Canada","{'location': {'lat': 49.2812653, 'lng': -123.1254477}, 'viewport': {'northeast': {'lat': 49.28247107989272, 'lng': -123.1242018701073}, 'southwest': {'lat': 49.27977142010728, 'lng': -123.1269015298927}}}",,49.2812653,-123.1254477
Alexander Holburn Beaudin + Lang LLP,"700 W Georgia St #2700, Vancouver, BC V7Y 1B8, Canada","{'location': {'lat': 49.282843, 'lng': -123.1190611}, 'viewport': {'northeast': {'lat': 49.28421787989272, 'lng': -123.1175655701073}, 'southwest': {'lat': 49.28151822010727, 'lng': -123.1202652298927}}}",,49.282843,-123.1190611
MARY CLARE T. BAILLIE,"2695 Granville St #304, Vancouver, BC V6H 3H4, Canada","{'location': {'lat': 49.2618847, 'lng': -123.1390557}, 'viewport': {'northeast': {'lat': 49.26315262989272, 'lng': -123.1375910201073}, 'southwest': {'lat': 49.26045297010727, 'lng': -123.1402906798927}}}",,49.2618847,-123.1390557
Vancouver Holocaust Centre,"Vancouver, BC V6M 2V9, Canada","{'location': {'lat': 49.2336228, 'lng': -123.1269706}, 'viewport': {'northeast': {'lat': 49.23509962989272, 'lng': -123.1256172201073}, 'southwest': {'lat': 49.23239997010728, 'lng': -123.1283168798927}}}",,49.2336228,-123.1269706
Maple Leaf Insurance Services,"6305 Fraser St, Vancouver, BC V5W 3A3, Canada","{'location': {'lat': 49.2270961, 'lng': -123.0909759}, 'viewport': {'northeast': {'lat': 49.22857147989272, 'lng': -123.0895845701073}, 'southwest': {'lat': 49.22587182010728, 'lng': -123.0922842298927}}}",,49.2270961,-123.0909759
King-de Pfyffer Agencies,"Vancouver, BC V6A 4K4, Canada","{'location': {'lat': 49.2684126, 'lng': -123.0808085}, 'viewport': {'northeast': {'lat': 49.26975762989272, 'lng': -123.0795810201073}, 'southwest': {'lat': 49.26705797010728, 'lng': -123.0822806798927}}}",,49.2684126,-123.0808085
Wesgroup Properties Ltd,"8683 Kerr St, Vancouver, BC V5S 0A4, Canada","{'location': {'lat': 49.2060818, 'lng': -123.0426479}, 'viewport': {'northeast': {'lat': 49.20747607989272, 'lng': -123.0412729701072}, 'southwest': {'lat': 49.20477642010728, 'lng': -123.0439726298927}}}",,49.2060818,-123.0426479
Marco Investments Ltd,"1693 W 7th Ave, Vancouver, BC V6J 1S4, Canada","{'location': {'lat': 49.26550839999999, 'lng': -123.1427996}, 'viewport': {'northeast': {'lat': 49.26681697989272, 'lng': -123.1414512701073}, 'southwest': {'lat': 49.26411732010727, 'lng': -123.1441509298927}}}",True,49.26550839999999,-123.1427996
Tony Lau Insurance Agencies,"8218 Granville St, Vancouver, BC V6P 4Z4, Canada","{'location': {'lat': 49.2114838, 'lng': -123.1402128}, 'viewport': {'northeast': {'lat': 49.21277117989272, 'lng': -123.1388496201073}, 'southwest': {'lat': 49.21007152010728, 'lng': -123.1415492798927}}}",,49.2114838,-123.1402128
Jeff Swartz Agency,"1868 Glen Dr, Vancouver, BC V6A 4K4, Canada","{'location': {'lat': 49.2684092, 'lng': -123.0805623}, 'viewport': {'northeast': {'lat': 49.26974942989272, 'lng': -123.0794573201073}, 'southwest': {'lat': 49.26704977010728, 'lng': -123.0821569798927}}}",,49.2684092,-123.0805623
BCLC,"11900 Haney Pl, Maple Ridge, BC V2X 8R9, Canada","{'location': {'lat': 49.2185536, 'lng': -122.598295}, 'viewport': {'northeast': {'lat': 49.21989842989272, 'lng': -122.5969389701073}, 'southwest': {'lat': 49.21719877010727, 'lng': -122.5996386298928}}}",,49.2185536,-122.598295
AAIM Adjusters Ltd,"808 Nelson St, Vancouver, BC V6Z 2H2, Canada","{'location': {'lat': 49.2798452, 'lng': -123.1246517}, 'viewport': {'northeast': {'lat': 49.28131362989271, 'lng': -123.1231238701072}, 'southwest': {'lat': 49.27861397010727, 'lng': -123.1258235298927}}}",,49.2798452,-123.1246517
Square One Insurance Services,"650 W Georgia St #1410, Vancouver, BC V6B 4N8, Canada","{'location': {'lat': 49.28187399999999, 'lng': -123.117812}, 'viewport': {'northeast': {'lat': 49.28304742989272, 'lng': -123.1164750701072}, 'southwest': {'lat': 49.28034777010728, 'lng': -123.1191747298927}}}",,49.28187399999999,-123.117812
Tony Liu CPA,"912 W King Edward Ave, Vancouver, BC V5Z 2E2, Canada","{'location': {'lat': 49.2485227, 'lng': -123.125056}, 'viewport': {'northeast': {'lat': 49.25015917989272, 'lng': -123.1236925201072}, 'southwest': {'lat': 49.24745952010728, 'lng': -123.1263921798927}}}",,49.2485227,-123.125056
Bonniehon Management Ltd,"5678 Granville St, Vancouver, BC V6M 3C5, Canada","{'location': {'lat': 49.2346926, 'lng': -123.1393881}, 'viewport': {'northeast': {'lat': 49.23604482989271, 'lng': -123.1381479701073}, 'southwest': {'lat': 49.23334517010727, 'lng': -123.1408476298927}}}",,49.2346926,-123.1393881
Business Now Service Inc,"1857 W 4th Ave W, Vancouver, BC V6J 1M4, Canada","{'location': {'lat': 49.26821959999999, 'lng': -123.1470435}, 'viewport': {'northeast': {'lat': 49.26948362989272, 'lng': -123.1456852701073}, 'southwest': {'lat': 49.26678397010728, 'lng': -123.1483849298927}}}",,49.26821959999999,-123.1470435
Edwards Kenny & Bray LLP (EKB),"1040 W Georgia St, Vancouver, BC V6E 4H3, Canada","{'location': {'lat': 49.2849807, 'lng': -123.1225996}, 'viewport': {'northeast': {'lat': 49.28623642989272, 'lng': -123.1214241201073}, 'southwest': {'lat': 49.28353677010728, 'lng': -123.1241237798927}}}",,49.2849807,-123.1225996
Metroline Construction LTD.,"207 W Hastings St, Vancouver, BC V6B 1H7, Canada","{'location': {'lat': 49.2828995, 'lng': -123.1096226}, 'viewport': {'northeast': {'lat': 49.28415142989272, 'lng': -123.1083780701073}, 'southwest': {'lat': 49.28145177010728, 'lng': -123.1110777298927}}}",,49.2828995,-123.1096226
Deans Knight Capital Management Ltd,"999 W Hastings St #1500, Vancouver, BC V6C 2W2, Canada","{'location': {'lat': 49.28731330000001, 'lng': -123.1160038}, 'viewport': {'northeast': {'lat': 49.28847067989272, 'lng': -123.1148571701073}, 'southwest': {'lat': 49.28577102010728, 'lng': -123.1175568298927}}}",,49.28731330000001,-123.1160038
Sydney Feinstein Agencies Ltd,"1951 Glen Dr, Vancouver, BC V6A 4J6, Canada","{'location': {'lat': 49.26749400000001, 'lng': -123.0825408}, 'viewport': {'northeast': {'lat': 49.26892272989272, 'lng': -123.0812862201073}, 'southwest': {'lat': 49.26622307010728, 'lng': -123.0839858798927}}}",,49.26749400000001,-123.0825408
Hapag-Lloyd,"1185 W Georgia St, Vancouver, BC V6E 4E6, Canada","{'location': {'lat': 49.2871141, 'lng': -123.1247404}, 'viewport': {'northeast': {'lat': 49.28856757989272, 'lng': -123.1235070201073}, 'southwest': {'lat': 49.28586792010728, 'lng': -123.1262066798927}}}",,49.2871141,-123.1247404
SHK Law Corporation,"555 Burrard St #700, Vancouver, BC V7X 1M8, Canada","{'location': {'lat': 49.286353, 'lng': -123.1191009}, 'viewport': {'northeast': {'lat': 49.28755197989272, 'lng': -123.1175164201073}, 'southwest': {'lat': 49.28485232010728, 'lng': -123.1202160798927}}}",,49.286353,-123.1191009
Magnitude - Connectivity - Simba Technologies,"938 W 8th Ave, Vancouver, BC V5Z 1E5, Canada","{'location': {'lat': 49.2640399, 'lng': -123.1250432}, 'viewport': {'northeast': {'lat': 49.26551862989272, 'lng': -123.1236896701073}, 'southwest': {'lat': 49.26281897010728, 'lng': -123.1263893298927}}}",,49.2640399,-123.1250432
GWL Realty Advisors,"650 W Georgia St Suite 1600, Vancouver, BC V6B 4N7, Canada","{'location': {'lat': 49.2818976, 'lng': -123.1179128}, 'viewport': {'northeast': {'lat': 49.28305922989272, 'lng': -123.1164950701073}, 'southwest': {'lat': 49.28035957010728, 'lng': -123.1191947298927}}}",,49.2818976,-123.1179128
GWL Realty Advisors Inc,"13575 Commerce Pkwy, Richmond, BC V6V 2L1, Canada","{'location': {'lat': 49.174076, 'lng': -123.0708236}, 'viewport': {'northeast': {'lat': 49.17542457989272, 'lng': -123.0696543701073}, 'southwest': {'lat': 49.17272492010728, 'lng': -123.0723540298927}}}",,49.174076,-123.0708236
Mike P. Murphy,"650 W Georgia St #2020, Vancouver, BC V6B 4N7, Canada","{'location': {'lat': 49.2819177, 'lng': -123.1180514}, 'viewport': {'northeast': {'lat': 49.28306927989272, 'lng': -123.1165643701073}, 'southwest': {'lat': 49.28036962010728, 'lng': -123.1192640298927}}}",,49.2819177,-123.1180514
Affleck Hrabinsky Burgoyne LLP,"570 Granville St, Vancouver, BC V6C 3P1, Canada","{'location': {'lat': 49.2837618, 'lng': -123.1156683}, 'viewport': {'northeast': {'lat': 49.28520937989271, 'lng': -123.1144588201073}, 'southwest': {'lat': 49.28250972010727, 'lng': -123.1171584798927}}}",,49.2837618,-123.1156683
"Vivien Lee, Notary Public","777 W Broadway #900, Vancouver, BC V5Z 4J7, Canada","{'location': {'lat': 49.263485, 'lng': -123.1215336}, 'viewport': {'northeast': {'lat': 49.26476002989272, 'lng': -123.1200509201073}, 'southwest': {'lat': 49.26206037010728, 'lng': -123.1227505798927}}}",,49.263485,-123.1215336
Rafii Architects Inc,"1600 Howe St Suite 1, Vancouver, BC V6Z 2L9, Canada","{'location': {'lat': 49.2738114, 'lng': -123.1325984}, 'viewport': {'northeast': {'lat': 49.27496977989272, 'lng': -123.1311815701073}, 'southwest': {'lat': 49.27227012010727, 'lng': -123.1338812298927}}}",,49.2738114,-123.1325984
West Fraser - Corporate Offices,"858 Beatty St #501, Vancouver, BC V6B 1C1, Canada","{'location': {'lat': 49.2772551, 'lng': -123.1147454}, 'viewport': {'northeast': {'lat': 49.27856177989273, 'lng': -123.1133280201073}, 'southwest': {'lat': 49.27586212010728, 'lng': -123.1160276798927}}}",,49.2772551,-123.1147454
West Fraser,"5360 Airport Rd S, Richmond, BC V7B 1B4, Canada","{'location': {'lat': 49.18129039999999, 'lng': -123.1653652}, 'viewport': {'northeast': {'lat': 49.18249932989272, 'lng': -123.1638934201073}, 'southwest': {'lat': 49.17979967010728, 'lng': -123.1665930798927}}}",,49.18129039999999,-123.1653652
Bright Harbor Wealth Management,"3724 N Frace Ave, Tacoma, WA 98407, United States","{'location': {'lat': 47.2826287, 'lng': -122.5247567}, 'viewport': {'northeast': {'lat': 47.28396632989271, 'lng': -122.5232233701073}, 'southwest': {'lat': 47.28126667010727, 'lng': -122.5259230298928}}}",,47.2826287,-122.5247567
Mao & Co,"1338 W Broadway, Vancouver, BC V6H 1H2, Canada","{'location': {'lat': 49.2631715, 'lng': -123.1349922}, 'viewport': {'northeast': {'lat': 49.26470882989272, 'lng': -123.1334631201073}, 'southwest': {'lat': 49.26200917010728, 'lng': -123.1361627798927}}}",,49.2631715,-123.1349922
Hawksworth Restaurant,"801 W Georgia St, Vancouver, BC V6C 1P7, Canada","{'location': {'lat': 49.2834532, 'lng': -123.1192387}, 'viewport': {'northeast': {'lat': 49.28469782989271, 'lng': -123.1178925201073}, 'southwest': {'lat': 49.28199817010727, 'lng': -123.1205921798927}}}",,49.2834532,-123.1192387
Bunt & Associates (Vancouver),"3S7, 1050 W Pender St #1550, Vancouver, BC, Canada","{'location': {'lat': 49.2869813, 'lng': -123.1195787}, 'viewport': {'northeast': {'lat': 49.28845552989272, 'lng': -123.1181435201073}, 'southwest': {'lat': 49.28575587010728, 'lng': -123.1208431798927}}}",,49.2869813,-123.1195787
Tom Hawkins Photography,"1774 E Hastings St, Vancouver, BC V5L 1S9, Canada","{'location': {'lat': 49.2810506, 'lng': -123.068705}, 'viewport': {'northeast': {'lat': 49.28245427989272, 'lng': -123.0673545701073}, 'southwest': {'lat': 49.27975462010728, 'lng': -123.0700542298927}}}",,49.2810506,-123.068705
Simon Fraser University,"8888 University Dr, Burnaby, BC V5A 1S6, Canada","{'location': {'lat': 49.2780937, 'lng': -122.9198833}, 'viewport': {'northeast': {'lat': 49.28389415000001, 'lng': -122.91570155}, 'southwest': {'lat': 49.26988915, 'lng': -122.93242855}}}",,49.2780937,-122.9198833
AWM Alliance Real Estate Group Ltd.,"958 W 8th Ave #401, Vancouver, BC V5Z 1E5, Canada","{'location': {'lat': 49.2641991, 'lng': -123.1255094}, 'viewport': {'northeast': {'lat': 49.26560112989272, 'lng': -123.1241580701073}, 'southwest': {'lat': 49.26290147010727, 'lng': -123.1268577298927}}}",,49.2641991,-123.1255094
Fasken Martineau,"550 Burrard St #2900, Vancouver, BC V6C 0A3, Canada","{'location': {'lat': 49.28579750000001, 'lng': -123.1182605}, 'viewport': {'northeast': {'lat': 49.28723262989272, 'lng': -123.1171590701072}, 'southwest': {'lat': 49.28453297010728, 'lng': -123.1198587298927}}}",,49.28579750000001,-123.1182605
